Site Id,Name,Met_Office_Id,Latitude,Longitude,Elevation
d7070633-701d-e811-a6d2-9cb6d0e28a40,HIERRO AEROPUERTO,60001,27.818889,-17.888889,32
da070633-701d-e811-a6d2-9cb6d0e28a40,LA PALMA AEROPUERTO,60005,28.633056,-17.755,31
dd070633-701d-e811-a6d2-9cb6d0e28a40,LA GOMERA AEROPUERTO,60007,28.029722,-17.214444,225
e0070633-701d-e811-a6d2-9cb6d0e28a40,IZANA,60010,28.308889,-16.499444,2368
e3070633-701d-e811-a6d2-9cb6d0e28a40,TENERIFE LOS RODEOS,60015,28.4775,-16.329444,617
e6070633-701d-e811-a6d2-9cb6d0e28a40,TENERIFE-GUIMAR,60018,28.318333,-16.382222,0
e9070633-701d-e811-a6d2-9cb6d0e28a40,STA. CRUZ DE TENERIFE,60020,28.455,-16.248889,36
ec070633-701d-e811-a6d2-9cb6d0e28a40,TENERIFE SUR,60025,28.0475,-16.560833,77
ef070633-701d-e811-a6d2-9cb6d0e28a40,ARTENARA,60028,28.018611,-15.614444,0
f2070633-701d-e811-a6d2-9cb6d0e28a40,LAS PALMAS DE GRAN CANARIA GANDO,60030,27.9225,-15.389444,47
e3d97d39-701d-e811-a6d2-9cb6d0e28a40,LAAYOUNE,60033,27.166667,-13.216667,64
e6d97d39-701d-e811-a6d2-9cb6d0e28a40,FUERTEVENTURA AEROPUERTO,60035,28.444722,-13.863056,30
e9d97d39-701d-e811-a6d2-9cb6d0e28a40,LANZAROTE AEROPUERTO,60040,28.951944,-13.600278,21
ecd97d39-701d-e811-a6d2-9cb6d0e28a40,SIDI IFNI,60060,29.366667,-10.183333,50
efd97d39-701d-e811-a6d2-9cb6d0e28a40,DAKHLA ,60096,23.711111,-15.930833,8.71
f2d97d39-701d-e811-a6d2-9cb6d0e28a40,TANGER-PORT,60100,35.787778,-5.806667,11
f5d97d39-701d-e811-a6d2-9cb6d0e28a40,TANGER AERODROME,60101,35.726389,-5.905556,14
f8d97d39-701d-e811-a6d2-9cb6d0e28a40,LARACHE,60105,35.162778,-6.116389,66
fbd97d39-701d-e811-a6d2-9cb6d0e28a40,CHEFCHAOUEN,60106,35.1725,-5.313056,287
fed97d39-701d-e811-a6d2-9cb6d0e28a40,AL HOCEIMA,60107,35.183333,-3.85,14
58ac9b3f-701d-e811-a6d2-9cb6d0e28a40,OUJDA,60115,34.783333,-1.933333,470
5bac9b3f-701d-e811-a6d2-9cb6d0e28a40,KENITRA,60120,34.300278,-6.594722,4
5eac9b3f-701d-e811-a6d2-9cb6d0e28a40,TAZA,60127,34.216667,-4,510
61ac9b3f-701d-e811-a6d2-9cb6d0e28a40,TAOURIRT,60128,34.396944,-2.898056,415
64ac9b3f-701d-e811-a6d2-9cb6d0e28a40,RABAT-SALE,60135,34.046111,-6.758056,79
67ac9b3f-701d-e811-a6d2-9cb6d0e28a40,SIDI SLIMANE,60136,34.232778,-6.054722,52
6aac9b3f-701d-e811-a6d2-9cb6d0e28a40,FES-SAIS,60141,33.932778,-4.975,579
6dac9b3f-701d-e811-a6d2-9cb6d0e28a40,MOHAMMEDIA,60146,33.716667,-7.4,5
70ac9b3f-701d-e811-a6d2-9cb6d0e28a40,MEKNES,60150,33.882222,-5.522778,560
73ac9b3f-701d-e811-a6d2-9cb6d0e28a40,CASABLANCA,60155,33.566667,-7.666667,57
c2d7c445-701d-e811-a6d2-9cb6d0e28a40,NOUASSEUR,60156,33.366667,-7.583333,206
c5d7c445-701d-e811-a6d2-9cb6d0e28a40,IFRANE,60160,33.5,-5.166667,1665
c8d7c445-701d-e811-a6d2-9cb6d0e28a40,EL JADIDA,60165,33.233333,-8.516667,28
cbd7c445-701d-e811-a6d2-9cb6d0e28a40,SETTAT,60177,32.95,-7.616667,408
ced7c445-701d-e811-a6d2-9cb6d0e28a40,KHOURIBGA,60178,32.866667,-6.966667,781
d1d7c445-701d-e811-a6d2-9cb6d0e28a40,SAFI,60185,32.283333,-9.233333,45
d4d7c445-701d-e811-a6d2-9cb6d0e28a40,KASBA-TADLA,60190,32.533333,-6.283333,507
d7d7c445-701d-e811-a6d2-9cb6d0e28a40,BENI-MELLAL,60191,32.366667,-6.4,472
dad7c445-701d-e811-a6d2-9cb6d0e28a40,MIDELT,60195,32.683333,-4.733333,1515
ddd7c445-701d-e811-a6d2-9cb6d0e28a40,BOUARFA,60200,32.566667,-1.95,1143
662e2f4c-701d-e811-a6d2-9cb6d0e28a40,ERRACHIDIA,60210,31.933333,-4.4,1042
692e2f4c-701d-e811-a6d2-9cb6d0e28a40,ESSAOUIRA,60220,31.516667,-9.783333,8
6c2e2f4c-701d-e811-a6d2-9cb6d0e28a40,TAKERKOUSTE,60223,31.033333,-8.483333,667
6f2e2f4c-701d-e811-a6d2-9cb6d0e28a40,MARRAKECH,60230,31.616667,-8.033333,466
722e2f4c-701d-e811-a6d2-9cb6d0e28a40,OUKAIMDEN,60237,31.216667,-7.916667,2680
752e2f4c-701d-e811-a6d2-9cb6d0e28a40,AGADIR INEZGANNE,60250,30.383333,-9.566667,18
782e2f4c-701d-e811-a6d2-9cb6d0e28a40,AGADIR AL MASSIRA,60252,30.328889,-9.399444,74
7b2e2f4c-701d-e811-a6d2-9cb6d0e28a40,TAROUDANT,60253,30.5,-8.816667,266
7e2e2f4c-701d-e811-a6d2-9cb6d0e28a40,OUARZAZATE,60265,30.933333,-6.9,1140
2dadc052-701d-e811-a6d2-9cb6d0e28a40,TIZNIT,60270,29.683333,-9.733333,261
30adc052-701d-e811-a6d2-9cb6d0e28a40,GUELMIN,60280,29.016667,-10.05,301
33adc052-701d-e811-a6d2-9cb6d0e28a40,TAN-TAN,60285,28.446111,-11.158333,204
36adc052-701d-e811-a6d2-9cb6d0e28a40,TETUAN,60318,35.592778,-5.331667,4
39adc052-701d-e811-a6d2-9cb6d0e28a40,CEUTA,60320,35.888611,-5.346944,88
3cadc052-701d-e811-a6d2-9cb6d0e28a40,SMARA,60335,26.733333,-11.683333,110
3fadc052-701d-e811-a6d2-9cb6d0e28a40,MELILLA ,60338,35.277778,-2.955556,55
42adc052-701d-e811-a6d2-9cb6d0e28a40,NADOR-AROUI,60340,34.983333,-3.016667,178
45adc052-701d-e811-a6d2-9cb6d0e28a40,JIJEL- ACHOUAT,60351,36.8,5.883333,10
48adc052-701d-e811-a6d2-9cb6d0e28a40,JIJEL-PORT,60353,36.816667,5.883333,6
8986fc58-701d-e811-a6d2-9cb6d0e28a40,SKIKDA,60355,36.883333,6.9,3
8c86fc58-701d-e811-a6d2-9cb6d0e28a40,ANNABA,60360,36.833333,7.816667,8
8f86fc58-701d-e811-a6d2-9cb6d0e28a40,TARF,60368,36.75,8.083333,4
9286fc58-701d-e811-a6d2-9cb6d0e28a40,ALGER-PORT,60369,36.766667,3.1,12
9586fc58-701d-e811-a6d2-9cb6d0e28a40,KOUBA,60370,36.716667,3.1,0
9886fc58-701d-e811-a6d2-9cb6d0e28a40,OUED KORICHE,60371,36.783333,3.033333,0
9b86fc58-701d-e811-a6d2-9cb6d0e28a40,BOUZAREAH,60372,36.783333,3,0
9e86fc58-701d-e811-a6d2-9cb6d0e28a40,AIN BENAIN,60374,36.783333,2.883333,0
a186fc58-701d-e811-a6d2-9cb6d0e28a40,BORDJ EL BAHRI,60376,36.783333,3.25,0
a486fc58-701d-e811-a6d2-9cb6d0e28a40,REGHAIA,60379,36.766667,3.333333,0
2cfb345f-701d-e811-a6d2-9cb6d0e28a40,TESSALA EL MERDJA,60380,36.616667,2.916667,0
2ffb345f-701d-e811-a6d2-9cb6d0e28a40,EL HARRACH,60381,36.716667,3.15,51
32fb345f-701d-e811-a6d2-9cb6d0e28a40,DAR-EL-BEIDA,60390,36.683333,3.216667,29
35fb345f-701d-e811-a6d2-9cb6d0e28a40,DAR EL BEIDA VILLE,60393,36.7,3.2,0
38fb345f-701d-e811-a6d2-9cb6d0e28a40,BARAKI,60394,36.683333,3.1,0
3bfb345f-701d-e811-a6d2-9cb6d0e28a40,TIZI-OUZOU,60395,36.7,4.133333,154
3efb345f-701d-e811-a6d2-9cb6d0e28a40,BEJAIA-AEROPORT,60402,36.716667,5.066667,7
41fb345f-701d-e811-a6d2-9cb6d0e28a40,GUELMA,60403,36.466667,7.466667,228
44fb345f-701d-e811-a6d2-9cb6d0e28a40,TENES,60410,36.5,1.333333,18
47fb345f-701d-e811-a6d2-9cb6d0e28a40,AIN-BESSAM,60415,36.283333,3.666667,752
b0386a65-701d-e811-a6d2-9cb6d0e28a40,CONSTANTINE,60419,36.283333,6.616667,692
b3386a65-701d-e811-a6d2-9cb6d0e28a40,OUM EL BOUAGHI,60421,35.866667,7.116667,891
b6386a65-701d-e811-a6d2-9cb6d0e28a40,SOUK AHRAS,60423,36.25,7.95,831
b9386a65-701d-e811-a6d2-9cb6d0e28a40,CHLEF,60425,36.216667,1.333333,163
bc386a65-701d-e811-a6d2-9cb6d0e28a40,MILIANA,60430,36.3,2.233333,721
bf386a65-701d-e811-a6d2-9cb6d0e28a40,MEDEA,60437,36.283333,2.733333,1036
c2386a65-701d-e811-a6d2-9cb6d0e28a40,BORDJ-BOU-ARRERIDJ,60444,36.066667,4.666667,957
c5386a65-701d-e811-a6d2-9cb6d0e28a40,SETIF AIN ARNAT,60445,36.166667,5.316667,1015
c8386a65-701d-e811-a6d2-9cb6d0e28a40,ARZEW,60452,35.816667,NaN,4
cb386a65-701d-e811-a6d2-9cb6d0e28a40,MOSTAGANEM,60457,35.883333,NaN,141
5de9b56b-701d-e811-a6d2-9cb6d0e28a40,ORAN-PORT,60461,35.7,NaN,22
60e9b56b-701d-e811-a6d2-9cb6d0e28a40,M'SILA,60467,35.666667,4.5,442
63e9b56b-701d-e811-a6d2-9cb6d0e28a40,BATNA,60468,35.75,6.316667,826
66e9b56b-701d-e811-a6d2-9cb6d0e28a40,TEBESSA,60475,35.466667,8.116667,820
69e9b56b-701d-e811-a6d2-9cb6d0e28a40,KHENCHELLA,60476,35.466667,7.083333,987
6ce9b56b-701d-e811-a6d2-9cb6d0e28a40,ORAN-SENIA,60490,35.633333,NaN,91
6fe9b56b-701d-e811-a6d2-9cb6d0e28a40,RELIZANE,60492,35.75,NaN,96
72e9b56b-701d-e811-a6d2-9cb6d0e28a40,MASCARA-GHRISS,60507,35.35,NaN,513
75e9b56b-701d-e811-a6d2-9cb6d0e28a40,TIARET,60511,35.35,1.466667,978
78e9b56b-701d-e811-a6d2-9cb6d0e28a40,KSAR CHELLALA,60514,35.166667,2.316667,800
1aa7fd71-701d-e811-a6d2-9cb6d0e28a40,BOU-SAADA,60515,35.333333,4.2,461
1da7fd71-701d-e811-a6d2-9cb6d0e28a40,GHAZAOUET,60517,35.1,-1.866667,5
20a7fd71-701d-e811-a6d2-9cb6d0e28a40,BENI-SAF,60518,35.3,-1.35,70
23a7fd71-701d-e811-a6d2-9cb6d0e28a40,SIDI-BEL-ABBES,60520,35.2,NaN,476
26a7fd71-701d-e811-a6d2-9cb6d0e28a40,MAGHNIA,60522,34.816667,-1.783333,428
29a7fd71-701d-e811-a6d2-9cb6d0e28a40,BISKRA,60525,34.8,5.733333,89
2ca7fd71-701d-e811-a6d2-9cb6d0e28a40,TLEMCEN-ZENATA,60531,35.016667,-1.466667,247
2fa7fd71-701d-e811-a6d2-9cb6d0e28a40,DJELFA,60535,33.15,3.383333,1185
32a7fd71-701d-e811-a6d2-9cb6d0e28a40,SAIDA,60536,34.866667,NaN,752
63390078-701d-e811-a6d2-9cb6d0e28a40,EL-KHEITER,60540,34.15,NaN,1001
66390078-701d-e811-a6d2-9cb6d0e28a40,MECHERIA,60549,33.533333,NaN,1124
69390078-701d-e811-a6d2-9cb6d0e28a40,EL-BAYADH,60550,33.716667,1.083333,1347
6c390078-701d-e811-a6d2-9cb6d0e28a40,TOUGGOURT,60555,33.066667,6.083333,92
6f390078-701d-e811-a6d2-9cb6d0e28a40,NAAMA,60557,33.266667,NaN,1167
72390078-701d-e811-a6d2-9cb6d0e28a40,EL-OUED,60559,33.5,6.783333,69
75390078-701d-e811-a6d2-9cb6d0e28a40,AIN-SEFRA,60560,32.766667,NaN,1065
78390078-701d-e811-a6d2-9cb6d0e28a40,HASSIR'MEL,60563,32.933333,3.3,769
7b390078-701d-e811-a6d2-9cb6d0e28a40,GHARDAIA,60566,32.4,3.8,469
7e390078-701d-e811-a6d2-9cb6d0e28a40,BECHAR,60571,31.5,-2.25,816
4c9e4c7e-701d-e811-a6d2-9cb6d0e28a40,OUARGLA,60580,31.933333,5.4,148
4f9e4c7e-701d-e811-a6d2-9cb6d0e28a40,HASSI-MESSAOUD,60581,31.666667,6.15,146
529e4c7e-701d-e811-a6d2-9cb6d0e28a40,KRECHBA,60585,29.073056,2.209167,0
559e4c7e-701d-e811-a6d2-9cb6d0e28a40,EL-GOLEA,60590,30.566667,2.866667,403
589e4c7e-701d-e811-a6d2-9cb6d0e28a40,HASSI KHEBBI,60593,29.166667,-5.233333,565
5b9e4c7e-701d-e811-a6d2-9cb6d0e28a40,TALMINIE,60595,29.166667,NaN,0
5e9e4c7e-701d-e811-a6d2-9cb6d0e28a40,BENI-ABBES,60602,30.133333,-2.166667,505
619e4c7e-701d-e811-a6d2-9cb6d0e28a40,RHOURD NOUSS,60603,29.716667,6.7,252
649e4c7e-701d-e811-a6d2-9cb6d0e28a40,TABELBALA,60605,29.416667,-3.25,550
679e4c7e-701d-e811-a6d2-9cb6d0e28a40,TIMIMOUN,60607,29.25,NaN,317
57e29d84-701d-e811-a6d2-9cb6d0e28a40,IN-AMENAS,60611,28.05,9.633333,562
5ae29d84-701d-e811-a6d2-9cb6d0e28a40,TIRIRINE,60612,22.05,8.583333,770
5de29d84-701d-e811-a6d2-9cb6d0e28a40,OUHANET,60613,28.7,8.933333,610
60e29d84-701d-e811-a6d2-9cb6d0e28a40,TAGUENTOUR,60619,28.466667,2.516667,636
63e29d84-701d-e811-a6d2-9cb6d0e28a40,ADRAR,60620,27.816667,NaN,283
66e29d84-701d-e811-a6d2-9cb6d0e28a40,MATRIOUENE,60621,27.866667,1.166667,390
69e29d84-701d-e811-a6d2-9cb6d0e28a40,ADEB LERRACH,60623,27.4,8.833333,0
6ce29d84-701d-e811-a6d2-9cb6d0e28a40,GARADJEBILET,60624,26.75,-7.25,400
6fe29d84-701d-e811-a6d2-9cb6d0e28a40,IN-SALAH,60630,27.233333,2.5,269
72e29d84-701d-e811-a6d2-9cb6d0e28a40,TINFOUYE,60639,28.433333,7.55,471
d393e38a-701d-e811-a6d2-9cb6d0e28a40,ILLIZI,60640,26.5,8.416667,541
d693e38a-701d-e811-a6d2-9cb6d0e28a40,REGGANE,60645,26.716667,NaN,214
d993e38a-701d-e811-a6d2-9cb6d0e28a40,AMGUID,60650,26.416667,5.366667,614
dc93e38a-701d-e811-a6d2-9cb6d0e28a40,TINDOUF,60656,27.7,-8.166667,449
df93e38a-701d-e811-a6d2-9cb6d0e28a40,ARAK (60660-0),60660,25.266667,3.733333,556
e293e38a-701d-e811-a6d2-9cb6d0e28a40,ABDENNIZI,60661,25.216667,5.116667,800
e593e38a-701d-e811-a6d2-9cb6d0e28a40,FADNOUNE,60662,25.816667,8.183333,1291
e893e38a-701d-e811-a6d2-9cb6d0e28a40,MOULAY LAHCEN,60663,24.716667,4.65,1054
eb93e38a-701d-e811-a6d2-9cb6d0e28a40,BORDJ HAOUS,60664,24.833333,8.316667,1104
ee93e38a-701d-e811-a6d2-9cb6d0e28a40,TINALKOUN,60667,24.6,10.216667,719
d9ef3b91-701d-e811-a6d2-9cb6d0e28a40,DJANET,60670,24.266667,9.466667,970
dcef3b91-701d-e811-a6d2-9cb6d0e28a40,MERTOUTEK,60672,24.216667,5.533333,1343
dfef3b91-701d-e811-a6d2-9cb6d0e28a40,TADANTE,60673,23.033333,7.866667,1179
e2ef3b91-701d-e811-a6d2-9cb6d0e28a40,OUALLEN,60675,23.4,1,358
e5ef3b91-701d-e811-a6d2-9cb6d0e28a40,IN AZZANE,60676,23.483333,11.233333,912
e8ef3b91-701d-e811-a6d2-9cb6d0e28a40,AFARA,60677,25.333333,7.8,1240
ebef3b91-701d-e811-a6d2-9cb6d0e28a40,ASSEKREM,60679,23.266667,5.633333,2710
eeef3b91-701d-e811-a6d2-9cb6d0e28a40,TAMANRASSET,60680,22.8,5.433333,1377
f1ef3b91-701d-e811-a6d2-9cb6d0e28a40,TINTARABINE,60682,23.183333,6.766667,1105
f4ef3b91-701d-e811-a6d2-9cb6d0e28a40,BIDON 5,60685,22.316667,1.116667,392
8ce98d97-701d-e811-a6d2-9cb6d0e28a40,BORDJ-BADJ-MOKHTAR,60686,21.333333,NaN,399
8fe98d97-701d-e811-a6d2-9cb6d0e28a40,TIMIAOUINI,60689,20.416667,1.8,0
92e98d97-701d-e811-a6d2-9cb6d0e28a40,IN-GUEZZAM,60690,19.566667,5.766667,403
95e98d97-701d-e811-a6d2-9cb6d0e28a40,ANESBARAKA,60691,19.433333,4.65,477
98e98d97-701d-e811-a6d2-9cb6d0e28a40,IN GUEZZAM,60692,19.566667,5.75,401
9be98d97-701d-e811-a6d2-9cb6d0e28a40,IN ATEI,60693,20.566667,6.116667,471
9ee98d97-701d-e811-a6d2-9cb6d0e28a40,IN AZAOUA,60694,20.966667,7.45,517
a1e98d97-701d-e811-a6d2-9cb6d0e28a40,TIN ZAOUATENE,60695,19.966667,2.983333,0
a4e98d97-701d-e811-a6d2-9cb6d0e28a40,TABARKA,60710,36.95,8.75,21
a7e98d97-701d-e811-a6d2-9cb6d0e28a40,BIZERTE,60714,37.25,9.8,3
a21b3e9e-701d-e811-a6d2-9cb6d0e28a40,TUNIS-CARTHAGE,60715,36.833333,10.233333,4
a51b3e9e-701d-e811-a6d2-9cb6d0e28a40,KELIBIA,60720,36.85,11.083333,30
a81b3e9e-701d-e811-a6d2-9cb6d0e28a40,BEJA B209,60723,36.733333,9.183333,159
ab1b3e9e-701d-e811-a6d2-9cb6d0e28a40,JENDOUBA,60725,36.483333,8.8,144
ae1b3e9e-701d-e811-a6d2-9cb6d0e28a40,NABEUL,60728,36.466667,10.7,78
b11b3e9e-701d-e811-a6d2-9cb6d0e28a40,ZAGHOUAN,60729,36.433333,10.083333,156
b41b3e9e-701d-e811-a6d2-9cb6d0e28a40,ENFIDHA,60731,36.066667,10.45,0
b71b3e9e-701d-e811-a6d2-9cb6d0e28a40,LE KEF,60732,36.133333,8.7,518
ba1b3e9e-701d-e811-a6d2-9cb6d0e28a40,SILIANA,60734,36.066667,9.366667,445
bd1b3e9e-701d-e811-a6d2-9cb6d0e28a40,KAIROUAN,60735,35.666667,10.1,68
a7329ea4-701d-e811-a6d2-9cb6d0e28a40,THALA,60738,35.55,8.683333,1092
aa329ea4-701d-e811-a6d2-9cb6d0e28a40,KASSERINE,60739,35.166667,8.833333,707
ad329ea4-701d-e811-a6d2-9cb6d0e28a40,MONASTIR-SKANES,60740,35.666667,10.75,3
b0329ea4-701d-e811-a6d2-9cb6d0e28a40,MAHDIA,60742,35.5,11.066667,12
b3329ea4-701d-e811-a6d2-9cb6d0e28a40,GAFSA,60745,34.416667,8.816667,314
b6329ea4-701d-e811-a6d2-9cb6d0e28a40,SIDI BOUZID,60748,35,9.483333,355
b9329ea4-701d-e811-a6d2-9cb6d0e28a40,SFAX EL-MAOU,60750,34.716667,10.683333,23
bc329ea4-701d-e811-a6d2-9cb6d0e28a40,TOZEUR,60760,33.916667,8.166667,86
bf329ea4-701d-e811-a6d2-9cb6d0e28a40,KEBILI,60764,33.7,8.966667,46
c2329ea4-701d-e811-a6d2-9cb6d0e28a40,GABES,60765,33.883333,10.1,5
f497fcaa-701d-e811-a6d2-9cb6d0e28a40,GABES MATMATA,60767,33.733333,9.916667,0
f797fcaa-701d-e811-a6d2-9cb6d0e28a40,DJERBA MELLITA,60769,33.866667,10.766667,4
fa97fcaa-701d-e811-a6d2-9cb6d0e28a40,MEDENINE,60770,33.35,10.483333,117
fd97fcaa-701d-e811-a6d2-9cb6d0e28a40,TATAOUINE,60772,32.916667,10.45,215
0098fcaa-701d-e811-a6d2-9cb6d0e28a40,REMADA,60775,32.316667,10.4,301
0398fcaa-701d-e811-a6d2-9cb6d0e28a40,EL BORMA,60780,31.683333,9.3,259
0698fcaa-701d-e811-a6d2-9cb6d0e28a40,BILMA,61017,18.683333,12.916667,357
0998fcaa-701d-e811-a6d2-9cb6d0e28a40,AGADEZ,61024,16.966667,7.983333,502
0c98fcaa-701d-e811-a6d2-9cb6d0e28a40,TILLABERY,61036,14.2,1.45,210
0f98fcaa-701d-e811-a6d2-9cb6d0e28a40,TAHOUA,61043,14.9,5.25,391
76d366b1-701d-e811-a6d2-9cb6d0e28a40,GOURE,61045,13.983333,10.3,460
79d366b1-701d-e811-a6d2-9cb6d0e28a40,N'GUIGMI,61049,14.25,13.116667,286
7cd366b1-701d-e811-a6d2-9cb6d0e28a40,NIAMEY-AERO,61052,13.483333,2.166667,227
7fd366b1-701d-e811-a6d2-9cb6d0e28a40,DOSSO,61053,13.033333,3.3,213
82d366b1-701d-e811-a6d2-9cb6d0e28a40,BIRNI-N'KONNI,61075,13.8,5.25,273
85d366b1-701d-e811-a6d2-9cb6d0e28a40,MARADI,61080,13.466667,7.083333,373
88d366b1-701d-e811-a6d2-9cb6d0e28a40,DIFFA,61085,13.416667,12.783333,305
8bd366b1-701d-e811-a6d2-9cb6d0e28a40,ZINDER,61090,13.783333,8.983333,453
8ed366b1-701d-e811-a6d2-9cb6d0e28a40,MAINE-SOROA,61096,13.233333,11.983333,337
91d366b1-701d-e811-a6d2-9cb6d0e28a40,GAYA B259,61099,11.883333,3.45,203
b55bdcb7-701d-e811-a6d2-9cb6d0e28a40,TESSALIT,61202,20.2,NaN,491
b85bdcb7-701d-e811-a6d2-9cb6d0e28a40,KIDAL,61214,18.433333,1.35,459
bb5bdcb7-701d-e811-a6d2-9cb6d0e28a40,TOMBOUCTOU,61223,16.716667,-3,264
be5bdcb7-701d-e811-a6d2-9cb6d0e28a40,GAO,61226,16.266667,NaN,260
c15bdcb7-701d-e811-a6d2-9cb6d0e28a40,NIORO DU SAHEL,61230,15.233333,-9.35,237
c45bdcb7-701d-e811-a6d2-9cb6d0e28a40,NARA ,61233,15.166667,-7.283333,265
c75bdcb7-701d-e811-a6d2-9cb6d0e28a40,YELIMANE,61235,15.116667,-10.566667,100
ca5bdcb7-701d-e811-a6d2-9cb6d0e28a40,HOMBORI,61240,15.333333,-1.683333,288
cd5bdcb7-701d-e811-a6d2-9cb6d0e28a40,MENAKA,61250,15.866667,2.216667,278
d05bdcb7-701d-e811-a6d2-9cb6d0e28a40,KAYES,61257,14.433333,-11.433333,47
ff6548be-701d-e811-a6d2-9cb6d0e28a40,MOPTI,61265,14.516667,-4.1,272
026648be-701d-e811-a6d2-9cb6d0e28a40,KITA,61270,13.066667,-9.466667,334
056648be-701d-e811-a6d2-9cb6d0e28a40,SEGOU,61272,13.4,-6.15,289
086648be-701d-e811-a6d2-9cb6d0e28a40,SAN,61277,13.333333,-4.833333,284
0b6648be-701d-e811-a6d2-9cb6d0e28a40,KENIEBA,61285,12.85,-11.233333,132
0e6648be-701d-e811-a6d2-9cb6d0e28a40,DIOILA,61288,12.483333,-6.8,331
116648be-701d-e811-a6d2-9cb6d0e28a40,BAMAKO SENOU,61291,12.533333,-7.95,381
146648be-701d-e811-a6d2-9cb6d0e28a40,KOUTIALA,61293,12.383333,-5.466667,367
176648be-701d-e811-a6d2-9cb6d0e28a40,BOUGOUNI,61296,11.416667,-7.5,351
1a6648be-701d-e811-a6d2-9cb6d0e28a40,SIKASSO,61297,11.35,-5.683333,375
b31b10c5-701d-e811-a6d2-9cb6d0e28a40,BIR MOGHREIN,61401,25.233333,-11.616667,360
b61b10c5-701d-e811-a6d2-9cb6d0e28a40,ZOUERATE,61404,22.75,-12.483333,343
b91b10c5-701d-e811-a6d2-9cb6d0e28a40,NOUADHIBOU,61415,20.920278,-17.036389,2.58
bc1b10c5-701d-e811-a6d2-9cb6d0e28a40,ATAR,61421,20.516667,-13.066667,224
bf1b10c5-701d-e811-a6d2-9cb6d0e28a40,AKJOUJT,61437,19.75,-14.366667,120
c21b10c5-701d-e811-a6d2-9cb6d0e28a40,NOUAKCHOTT,61442,18.300278,-15.975556,7.86
c51b10c5-701d-e811-a6d2-9cb6d0e28a40,TIDJIKJA,61450,18.566667,-11.433333,402
c81b10c5-701d-e811-a6d2-9cb6d0e28a40,BOUTILIMIT,61461,17.533333,-14.683333,75
cb1b10c5-701d-e811-a6d2-9cb6d0e28a40,ALEG,61470,17.05,-12.916667,0
ce1b10c5-701d-e811-a6d2-9cb6d0e28a40,ROSSO,61489,16.5,-15.816667,6
cda298cb-701d-e811-a6d2-9cb6d0e28a40,KAEDI,61492,16.15,-13.516667,18
d0a298cb-701d-e811-a6d2-9cb6d0e28a40,NEMA,61497,16.6,-7.266667,269
d3a298cb-701d-e811-a6d2-9cb6d0e28a40,KIFFA,61498,16.633333,-11.4,115
d6a298cb-701d-e811-a6d2-9cb6d0e28a40,AIOUN EL ATROUSS,61499,16.7,-9.6,223
d9a298cb-701d-e811-a6d2-9cb6d0e28a40,SELIBABY,61510,15.233333,-12.166667,0
dca298cb-701d-e811-a6d2-9cb6d0e28a40,BASSIKOUNOU,61520,15.866667,-5.933333,0
dfa298cb-701d-e811-a6d2-9cb6d0e28a40,SAINT-LOUIS,61600,16.05,-16.449722,2.16
e2a298cb-701d-e811-a6d2-9cb6d0e28a40,PODOR,61612,16.649722,-14.929722,5.73
e5a298cb-701d-e811-a6d2-9cb6d0e28a40,LINGUERE,61627,15.38,-15.119722,19.59
e8a298cb-701d-e811-a6d2-9cb6d0e28a40,MATAM,61630,15.63,-13.25,15.35
4bb21ad2-701d-e811-a6d2-9cb6d0e28a40,DAKAR/YOFF,61641,14.73,-17.5,24.49
4eb21ad2-701d-e811-a6d2-9cb6d0e28a40,DIOURBEL,61666,14.65,-16.23,7.11
51b21ad2-701d-e811-a6d2-9cb6d0e28a40,KAOLACK,61679,14.13,-16.07,6
54b21ad2-701d-e811-a6d2-9cb6d0e28a40,TAMBACOUNDA,61687,13.769722,-13.679722,48.68
57b21ad2-701d-e811-a6d2-9cb6d0e28a40,ZIGUINCHOR,61695,12.55,-16.269722,19.3
5ab21ad2-701d-e811-a6d2-9cb6d0e28a40,CAP-SKIRRING,61697,12.4,-16.75,48.68
5db21ad2-701d-e811-a6d2-9cb6d0e28a40,KOLDA,61698,12.88,-14.97,8.38
60b21ad2-701d-e811-a6d2-9cb6d0e28a40,KEDOUGOU,61699,12.57,-12.22,165.45
63b21ad2-701d-e811-a6d2-9cb6d0e28a40,BANJUL YUNDUM,61701,13.2,-16.633333,33
66b21ad2-701d-e811-a6d2-9cb6d0e28a40,SIBANOR,61705,13.216667,-16.2,0
456ca9d8-701d-e811-a6d2-9cb6d0e28a40,JENOI,61707,13.483333,-15.566667,0
486ca9d8-701d-e811-a6d2-9cb6d0e28a40,BANJUL HALF-DIE,61711,13.45,-16.45,2
4b6ca9d8-701d-e811-a6d2-9cb6d0e28a40,KEREWAN,61712,13.483333,-16.183333,15
4e6ca9d8-701d-e811-a6d2-9cb6d0e28a40,KAUR,61717,13.716667,-15.25,6
516ca9d8-701d-e811-a6d2-9cb6d0e28a40,KUNTAUR,61720,13.666667,-14.883333,0
546ca9d8-701d-e811-a6d2-9cb6d0e28a40,GEORGETOWN B302,61721,13.533333,-14.766667,1
576ca9d8-701d-e811-a6d2-9cb6d0e28a40,SAPU,61722,13.566667,-15.933333,2
5a6ca9d8-701d-e811-a6d2-9cb6d0e28a40,BASSE,61731,13.316667,-14.216667,4
5d6ca9d8-701d-e811-a6d2-9cb6d0e28a40,FATOTO,61733,13.666667,-14.466667,17.5
606ca9d8-701d-e811-a6d2-9cb6d0e28a40,BISSAU AEROPORTO,61766,11.883333,-15.65,36
f8f945df-701d-e811-a6d2-9cb6d0e28a40,BOLAMA,61769,11.583333,-15.483333,20
fbf945df-701d-e811-a6d2-9cb6d0e28a40,BAFATA,61781,12.166667,-14.666667,43
fef945df-701d-e811-a6d2-9cb6d0e28a40,KOUNDARA,61802,12.566667,-13.516667,90
01fa45df-701d-e811-a6d2-9cb6d0e28a40,LABE,61809,11.316667,-12.3,1025.36
04fa45df-701d-e811-a6d2-9cb6d0e28a40,SIGUIRI,61811,11.433333,-9.166667,363.5
07fa45df-701d-e811-a6d2-9cb6d0e28a40,BOKE,61816,10.933333,-14.816667,69.4
0afa45df-701d-e811-a6d2-9cb6d0e28a40,KINDIA,61818,10.05,-12.866667,458.34
0dfa45df-701d-e811-a6d2-9cb6d0e28a40,MAMOU,61820,10.366667,-12.083333,785
10fa45df-701d-e811-a6d2-9cb6d0e28a40,KANKAN,61829,10.383333,-9.3,376.31
13fa45df-701d-e811-a6d2-9cb6d0e28a40,CONAKRY,61831,9.566667,-13.616667,0
4435dfe5-701d-e811-a6d2-9cb6d0e28a40,CONAKRY GBESSIA,61832,9.566667,-13.616667,25.79
4735dfe5-701d-e811-a6d2-9cb6d0e28a40,FARANAH BADALA,61833,10.033333,-10.75,463
4a35dfe5-701d-e811-a6d2-9cb6d0e28a40,KISSIDOUGOU,61834,9.216667,-10.216667,412
4d35dfe5-701d-e811-a6d2-9cb6d0e28a40,MACENTA,61847,8.533333,-9.5,559
5035dfe5-701d-e811-a6d2-9cb6d0e28a40,N'ZEREKORE,61849,7.75,-8.283333,475
5335dfe5-701d-e811-a6d2-9cb6d0e28a40,LUNGI,61856,8.616667,-13.2,27
5635dfe5-701d-e811-a6d2-9cb6d0e28a40,BONTHE,61866,7.533333,-12.5,8
5935dfe5-701d-e811-a6d2-9cb6d0e28a40,MAKENI,61873,8.55,-12.05,84
5c35dfe5-701d-e811-a6d2-9cb6d0e28a40,YELE,61877,8.416667,-11.833333,68
c3c72cec-701d-e811-a6d2-9cb6d0e28a40,NJALA,61878,8.1,-12.1,56
c6c72cec-701d-e811-a6d2-9cb6d0e28a40,BO,61881,7.95,-11.766667,93
c9c72cec-701d-e811-a6d2-9cb6d0e28a40,KABALA,61886,9.583333,-11.55,464
ccc72cec-701d-e811-a6d2-9cb6d0e28a40,DARU,61891,7.983333,-10.85,186
cfc72cec-701d-e811-a6d2-9cb6d0e28a40,SEFADU,61892,8.65,-10.966667,390
d2c72cec-701d-e811-a6d2-9cb6d0e28a40,ST. HELENA IS.,61901,-15.941944,-5.667222,436
d5c72cec-701d-e811-a6d2-9cb6d0e28a40,WIDE AWAKE AIRFIELD ASCENSION ISLAND,61902,-7.97,-14.405556,79
d8c72cec-701d-e811-a6d2-9cb6d0e28a40,ST. HELENA,61903,-15.939722,-5.669722,438
dbc72cec-701d-e811-a6d2-9cb6d0e28a40,S. TOME,61931,NaN,6.716667,13
996f3df2-701d-e811-a6d2-9cb6d0e28a40,PRINCIPE,61934,1.65,7.416667,5
9c6f3df2-701d-e811-a6d2-9cb6d0e28a40,DIEGO GARCIA,61966,-7.299722,72.4,8
9f6f3df2-701d-e811-a6d2-9cb6d0e28a40,DIEGO GARCIA ,61967,-7.3,72.4,3
a26f3df2-701d-e811-a6d2-9cb6d0e28a40,ILES GLORIEUSES,61968,-11.582778,47.289722,4
a56f3df2-701d-e811-a6d2-9cb6d0e28a40,ILE JUAN DE NOVA,61970,-17.054722,42.711944,10
a86f3df2-701d-e811-a6d2-9cb6d0e28a40,ILE EUROPA,61972,-22.344167,40.340556,6
ab6f3df2-701d-e811-a6d2-9cb6d0e28a40,AGALEGA,61974,-10.383333,56.6,4
ae6f3df2-701d-e811-a6d2-9cb6d0e28a40,SERGE-FROLOW (ILE TROMELIN),61976,-15.887778,54.520556,13
b16f3df2-701d-e811-a6d2-9cb6d0e28a40,PITON VILLERS RADAR,61978,-21.190556,55.573333,0
174438f8-701d-e811-a6d2-9cb6d0e28a40,LE COLORADO RADAR,61979,-20.911667,55.421944,0
1a4438f8-701d-e811-a6d2-9cb6d0e28a40,SAINT-DENIS GILLOT (REUNION),61980,-20.8925,55.528611,13
1d4438f8-701d-e811-a6d2-9cb6d0e28a40,Saint-Denis (Reunion),61982,-20.91,55.59,75
204438f8-701d-e811-a6d2-9cb6d0e28a40,ST. BRANDON (RAPHAEL ISLAND),61986,-16.45,59.616667,4
234438f8-701d-e811-a6d2-9cb6d0e28a40,RODRIGUES (POINT CANON),61988,-19.683333,63.416667,62
264438f8-701d-e811-a6d2-9cb6d0e28a40,PLAINE CORAIL (RODRIGUES),61989,-19.75,63.366667,34
294438f8-701d-e811-a6d2-9cb6d0e28a40,PLAISANCE (MAURITIUS),61990,-20.434444,57.683611,57
2c4438f8-701d-e811-a6d2-9cb6d0e28a40,VACOAS (MAURITIUS),61995,-20.2975,57.494722,425
2f4438f8-701d-e811-a6d2-9cb6d0e28a40,MARTIN DE VIVIES (ILE AMSTERDAM),61996,-37.795278,77.569167,29
598935fe-701d-e811-a6d2-9cb6d0e28a40,ALFRED FAURE (ILES CROZET),61997,-46.4325,51.856667,146
5c8935fe-701d-e811-a6d2-9cb6d0e28a40,PORT-AUX-FRANCAIS (ILES KERGUELEN),61998,-49.352222,70.243333,30
5f8935fe-701d-e811-a6d2-9cb6d0e28a40,NALUT,62002,31.514444,10.597778,621
628935fe-701d-e811-a6d2-9cb6d0e28a40,ZUARA,62007,32.555278,12.055556,4
658935fe-701d-e811-a6d2-9cb6d0e28a40,YEFREN,62008,32.040278,12.312778,691
688935fe-701d-e811-a6d2-9cb6d0e28a40,ESSBEEA,62009,32.322778,13.101667,0
6b8935fe-701d-e811-a6d2-9cb6d0e28a40,GARIAN,62011,32.091944,13.004167,728.9
6e8935fe-701d-e811-a6d2-9cb6d0e28a40,EL KHOMS,62012,32.400833,14.1425,25
718935fe-701d-e811-a6d2-9cb6d0e28a40,BENWLID,62014,31.740556,13.957222,271
88065804-711d-e811-a6d2-9cb6d0e28a40,MISURATA,62016,32.2425,15.021111,33
8b065804-711d-e811-a6d2-9cb6d0e28a40,ABU NJAYM,62018,30.355278,15.254167,90
8e065804-711d-e811-a6d2-9cb6d0e28a40,SIRTE,62019,31.208333,16.571944,13
91065804-711d-e811-a6d2-9cb6d0e28a40,BENINA,62053,32.1,20.266667,132
94065804-711d-e811-a6d2-9cb6d0e28a40,AL-MARJ,62054,32.516667,20.883333,335
97065804-711d-e811-a6d2-9cb6d0e28a40,TOBRUK,62062,32.095556,23.928889,51
9a065804-711d-e811-a6d2-9cb6d0e28a40,GHADAMES,62103,30.110833,9.490556,347
9d065804-711d-e811-a6d2-9cb6d0e28a40,GARIAT EL-SHARGHIA,62120,30.390833,13.585278,497
a0065804-711d-e811-a6d2-9cb6d0e28a40,EL HAMADA,62121,29.516667,12.933333,623
e943700a-711d-e811-a6d2-9cb6d0e28a40,HON,62131,29.134167,15.935,267
ec43700a-711d-e811-a6d2-9cb6d0e28a40,ZALLA,62140,28.585556,17.299722,336
ef43700a-711d-e811-a6d2-9cb6d0e28a40,JALO,62161,29.0275,21.546111,46
f243700a-711d-e811-a6d2-9cb6d0e28a40,GIGHBUB,62176,29.754444,24.516389,-1
f543700a-711d-e811-a6d2-9cb6d0e28a40,GHAT,62212,25.139722,10.151111,693
f843700a-711d-e811-a6d2-9cb6d0e28a40,TRAGEN,62225,25.943611,14.417778,0
fb43700a-711d-e811-a6d2-9cb6d0e28a40,TAZERBO,62259,25.672778,21.090556,261.15
fe43700a-711d-e811-a6d2-9cb6d0e28a40,KUFRA,62271,24.198611,23.3,436
0144700a-711d-e811-a6d2-9cb6d0e28a40,SIDI BARRANI,62301,31.616667,25.9,25.11
42567e10-711d-e811-a6d2-9cb6d0e28a40,SALLUM PLATEAU,62305,31.570278,25.131667,6
45567e10-711d-e811-a6d2-9cb6d0e28a40,MERSA MATRUH,62306,31.325278,27.221667,30
48567e10-711d-e811-a6d2-9cb6d0e28a40,DABAA,62309,31.032778,28.444722,18
4b567e10-711d-e811-a6d2-9cb6d0e28a40,NOUZHA,62318,31.181667,29.946389,7
4e567e10-711d-e811-a6d2-9cb6d0e28a40,ROSETTA,62324,31.453611,30.370278,3.4
51567e10-711d-e811-a6d2-9cb6d0e28a40,BALTIM,62325,31.553889,31.084444,2.17
54567e10-711d-e811-a6d2-9cb6d0e28a40,DAMIETTA,62330,31.416667,31.816667,3.4
57567e10-711d-e811-a6d2-9cb6d0e28a40,PORT SAID EL GAMIL,62332,31.278889,32.237778,6.1
5a567e10-711d-e811-a6d2-9cb6d0e28a40,RAFAH-AGRIMET,62335,31.209167,34.205556,75
7c560417-711d-e811-a6d2-9cb6d0e28a40,EL ARISH-AGRIMET,62336,31.088611,33.821667,17
7f560417-711d-e811-a6d2-9cb6d0e28a40,EL ARISH,62337,31.073333,33.835833,31.8
82560417-711d-e811-a6d2-9cb6d0e28a40,TAHRIR,62345,30.65,30.7,16
85560417-711d-e811-a6d2-9cb6d0e28a40,WADI EL NATROON AGRIMET,62357,30.4025,30.363333,1
88560417-711d-e811-a6d2-9cb6d0e28a40,SHEBIN EL KOM,62360,30.6,31.016667,13.85
8b560417-711d-e811-a6d2-9cb6d0e28a40,CAIRO,62366,30.111389,31.413889,74.5
8e560417-711d-e811-a6d2-9cb6d0e28a40,BAHTIM AGRIMET,62369,30.143333,31.255,16.98
91560417-711d-e811-a6d2-9cb6d0e28a40,CAIRO H.Q,62371,30.083333,31.283333,26.4
94560417-711d-e811-a6d2-9cb6d0e28a40,GIZA AGRIMET,62375,30.05,31.216667,23
870b171d-711d-e811-a6d2-9cb6d0e28a40,HELWAN,62378,29.862778,31.349167,140.7
8a0b171d-711d-e811-a6d2-9cb6d0e28a40,FAYOUM,62381,29.3,30.85,23.2
8d0b171d-711d-e811-a6d2-9cb6d0e28a40,MINYA,62387,28.083333,30.733333,40.5
900b171d-711d-e811-a6d2-9cb6d0e28a40,MALWY  AGRIMET,62389,27.7,30.75,44.65
930b171d-711d-e811-a6d2-9cb6d0e28a40,ASYUT  AGRIMET,62392,27.2,31.166667,52
960b171d-711d-e811-a6d2-9cb6d0e28a40,ASYUT,62393,27.038056,31.011944,226
990b171d-711d-e811-a6d2-9cb6d0e28a40,SHOAG AIRPORT,62398,26.342778,31.742778,70.12
9c0b171d-711d-e811-a6d2-9cb6d0e28a40,SOUTH OF VALLEY UNIVERSITY,62403,26.200278,32.746667,77.3
9f0b171d-711d-e811-a6d2-9cb6d0e28a40,LUXOR,62405,25.670833,32.706389,99
e7063e23-711d-e811-a6d2-9cb6d0e28a40,EDFOU,62408,24.984444,32.8325,89
ea063e23-711d-e811-a6d2-9cb6d0e28a40,ASSWAN,62414,23.964444,32.82,194
ed063e23-711d-e811-a6d2-9cb6d0e28a40,SIWA,62417,29.2,25.483333,-13.26
f0063e23-711d-e811-a6d2-9cb6d0e28a40,ABU SIMBEL,62419,22.375833,31.611667,192
f3063e23-711d-e811-a6d2-9cb6d0e28a40,BAHARIA,62420,28.333333,28.9,129.5
f6063e23-711d-e811-a6d2-9cb6d0e28a40,FARAFRA,62423,27.058333,27.989167,92.1
f9063e23-711d-e811-a6d2-9cb6d0e28a40,SHARK-EL-OUINAT,62425,22.583333,28.716111,273.81
efd97d39-701d-e811-a6d2-9cb6d0e28a40,DAKHLA ,62432,25.502778,28.9725,111.27
ff063e23-711d-e811-a6d2-9cb6d0e28a40,KHARGA AGRIMET,62435,25.464444,30.5425,72.75
44817f29-711d-e811-a6d2-9cb6d0e28a40,ISMAILIA,62440,30.591667,32.247222,12.74
47817f29-711d-e811-a6d2-9cb6d0e28a40,EL-SUEZ,62450,29.866667,32.466667,3.6
4a817f29-711d-e811-a6d2-9cb6d0e28a40,NEKHEL,62452,29.914444,33.740833,403
4d817f29-711d-e811-a6d2-9cb6d0e28a40,EL HASANA,62453,30.465833,33.778889,226
50817f29-711d-e811-a6d2-9cb6d0e28a40,BEAR EL ABD,62454,30.974722,32.758889,17.9
53817f29-711d-e811-a6d2-9cb6d0e28a40,RAS SEDR,62455,29.584444,32.7175,16.3
56817f29-711d-e811-a6d2-9cb6d0e28a40,TABA,62456,29.587778,34.778056,749.85
59817f29-711d-e811-a6d2-9cb6d0e28a40,SANT KATREIN,62457,28.685278,34.0625,1350
5c817f29-711d-e811-a6d2-9cb6d0e28a40,ABURDEES,62458,28.910556,33.195556,7.69
2d0ab52f-711d-e811-a6d2-9cb6d0e28a40,EL TOR,62459,28.208889,33.645556,14
300ab52f-711d-e811-a6d2-9cb6d0e28a40,SHARM EL SHEIKH,62460,27.978611,34.393333,51
330ab52f-711d-e811-a6d2-9cb6d0e28a40,HURGUADA,62463,27.178611,33.800833,14.1
360ab52f-711d-e811-a6d2-9cb6d0e28a40,HURGUADA POLLUTION,62464,27.285556,33.747778,6.5
390ab52f-711d-e811-a6d2-9cb6d0e28a40,KOSSEIR,62465,26.135556,34.258333,10.8
3c0ab52f-711d-e811-a6d2-9cb6d0e28a40,DAHAB,62467,28.491944,34.500556,19.3
3f0ab52f-711d-e811-a6d2-9cb6d0e28a40,SHALATIN,62476,23.130833,35.584167,21.44
420ab52f-711d-e811-a6d2-9cb6d0e28a40,WADI HALFA,62600,21.816667,31.35,190
450ab52f-711d-e811-a6d2-9cb6d0e28a40,HALIB,62615,22.216667,36.65,2
cee0ef35-711d-e811-a6d2-9cb6d0e28a40,STATION NO 6,62620,20.75,32.55,0
d1e0ef35-711d-e811-a6d2-9cb6d0e28a40,ARBAT,62635,19.833333,36.966667,120
d4e0ef35-711d-e811-a6d2-9cb6d0e28a40,ABU HAMED,62640,19.533333,33.316667,312
d7e0ef35-711d-e811-a6d2-9cb6d0e28a40,PORT SUDAN,62641,19.583333,37.216667,42
dae0ef35-711d-e811-a6d2-9cb6d0e28a40,DONGOLA,62650,19.166667,30.483333,226
dde0ef35-711d-e811-a6d2-9cb6d0e28a40,SUAKIN,62652,19.1,37.333333,3
e0e0ef35-711d-e811-a6d2-9cb6d0e28a40,KARIMA,62660,18.55,31.85,249
e3e0ef35-711d-e811-a6d2-9cb6d0e28a40,TOKAR,62671,18.433333,37.733333,19
e6e0ef35-711d-e811-a6d2-9cb6d0e28a40,AGIG,62675,18.233333,38.183333,2
72ff893c-711d-e811-a6d2-9cb6d0e28a40,ATBARA,62680,17.7,33.966667,345
75ff893c-711d-e811-a6d2-9cb6d0e28a40,HUDEIBA,62682,17.566667,33.933333,350
78ff893c-711d-e811-a6d2-9cb6d0e28a40,SHENDI,62700,16.7,33.433333,360
7bff893c-711d-e811-a6d2-9cb6d0e28a40,KHARTOUM,62721,15.6,32.55,380
7eff893c-711d-e811-a6d2-9cb6d0e28a40,AROMA,62722,15.833333,36.15,0
81ff893c-711d-e811-a6d2-9cb6d0e28a40,SHAMBAT OBSERVATORY,62723,15.666667,32.533333,380
84ff893c-711d-e811-a6d2-9cb6d0e28a40,KASSALA,62730,15.466667,36.4,500
87ff893c-711d-e811-a6d2-9cb6d0e28a40,HALFA EL GAIDIDA,62733,15.316667,35.6,451
8aff893c-711d-e811-a6d2-9cb6d0e28a40,ED DUEIM,62750,14,32.333333,378
562bdc42-711d-e811-a6d2-9cb6d0e28a40,WAD MEDANI,62751,14.4,33.483333,408
592bdc42-711d-e811-a6d2-9cb6d0e28a40,GEDAREF,62752,14.033333,35.4,599
5c2bdc42-711d-e811-a6d2-9cb6d0e28a40,EL FASHER,62760,13.616667,25.333333,730
5f2bdc42-711d-e811-a6d2-9cb6d0e28a40,SENNAR,62762,13.55,33.616667,418
622bdc42-711d-e811-a6d2-9cb6d0e28a40,GENINA,62770,13.483333,22.45,805
652bdc42-711d-e811-a6d2-9cb6d0e28a40,EL OBEID,62771,13.166667,30.233333,574
682bdc42-711d-e811-a6d2-9cb6d0e28a40,KOSTI,62772,13.166667,32.666667,381
6b2bdc42-711d-e811-a6d2-9cb6d0e28a40,UMM BENIN,62774,13.066667,33.95,435
6e2bdc42-711d-e811-a6d2-9cb6d0e28a40,EN NAHUD,62781,12.7,28.433333,564
ee392249-711d-e811-a6d2-9cb6d0e28a40,NYALA,62790,12.05,24.883333,643
f1392249-711d-e811-a6d2-9cb6d0e28a40,ABU NA'AMA,62795,12.733333,34.133333,445
f4392249-711d-e811-a6d2-9cb6d0e28a40,RENK,62801,11.75,32.783333,282
f7392249-711d-e811-a6d2-9cb6d0e28a40,RASHAD,62803,11.866667,31.05,885
fa392249-711d-e811-a6d2-9cb6d0e28a40,DAMAZINE,62805,11.783333,34.383333,470
fd392249-711d-e811-a6d2-9cb6d0e28a40,BABANUSA,62809,11.333333,27.816667,453
003a2249-711d-e811-a6d2-9cb6d0e28a40,KADOGLLI,62810,11,29.716667,499
033a2249-711d-e811-a6d2-9cb6d0e28a40,MALKAL,62840,9.55,31.65,388
063a2249-711d-e811-a6d2-9cb6d0e28a40,RAGA,62871,8.466667,25.683333,545
5c13834f-711d-e811-a6d2-9cb6d0e28a40,WAU,62880,7.7,28.016667,438
5f13834f-711d-e811-a6d2-9cb6d0e28a40,JUBA,62941,4.866667,31.6,457
6213834f-711d-e811-a6d2-9cb6d0e28a40,NACFA,63006,16.666667,38.333333,0
6513834f-711d-e811-a6d2-9cb6d0e28a40,ASMARA,63021,15.283333,38.916667,2325
6813834f-711d-e811-a6d2-9cb6d0e28a40,MASSAWA,63023,15.616667,39.45,0
6b13834f-711d-e811-a6d2-9cb6d0e28a40,ASSAB,63043,13.066667,42.716667,14
6e13834f-711d-e811-a6d2-9cb6d0e28a40,DJIBOUTI,63125,11.55,43.15,19
7113834f-711d-e811-a6d2-9cb6d0e28a40,OBOLEH,63145,11.166667,42.716667,0
7413834f-711d-e811-a6d2-9cb6d0e28a40,BORAMA,63150,9.95,43.183333,1454
52e9f355-711d-e811-a6d2-9cb6d0e28a40,BERBERA,63160,10.416667,45.016667,9
55e9f355-711d-e811-a6d2-9cb6d0e28a40,HARGEISA,63170,9.5,44.083333,1326
58e9f355-711d-e811-a6d2-9cb6d0e28a40,BURAO,63175,9.516667,45.566667,1032
5be9f355-711d-e811-a6d2-9cb6d0e28a40,ERIGAVO,63180,10.633333,47.366667,1743
5ee9f355-711d-e811-a6d2-9cb6d0e28a40,LAS-ANOD,63190,8.5,47.366667,700
61e9f355-711d-e811-a6d2-9cb6d0e28a40,ALULA ,63200,11.95,50.733333,2
64e9f355-711d-e811-a6d2-9cb6d0e28a40,BOSASO,63210,11.283333,49.183333,2
67e9f355-711d-e811-a6d2-9cb6d0e28a40,SCUSCIUBAN,63220,10.3,50.233333,344
6ae9f355-711d-e811-a6d2-9cb6d0e28a40,GARDO,63225,9.516667,49.083333,812
418b505c-711d-e811-a6d2-9cb6d0e28a40,GAROE,63227,7.95,48.5,0
448b505c-711d-e811-a6d2-9cb6d0e28a40,EIL,63228,7.95,49.783333,0
478b505c-711d-e811-a6d2-9cb6d0e28a40,GALCAYO,63230,6.85,47.266667,302
4a8b505c-711d-e811-a6d2-9cb6d0e28a40,OBBIA,63235,5.333333,48.566667,10
4d8b505c-711d-e811-a6d2-9cb6d0e28a40,EL BUR,63237,4.7,46.616667,175
508b505c-711d-e811-a6d2-9cb6d0e28a40,BELET UEN,63240,4.7,45.216667,173
538b505c-711d-e811-a6d2-9cb6d0e28a40,HUDDUR,63245,4.183333,43.866667,0
568b505c-711d-e811-a6d2-9cb6d0e28a40,ISCIA BAIDOA,63247,3.133333,43.666667,487
14097262-711d-e811-a6d2-9cb6d0e28a40,LUG-GANANE,63248,3.583333,42.45,0
17097262-711d-e811-a6d2-9cb6d0e28a40,BARDERA,63250,2.35,42.3,116
1a097262-711d-e811-a6d2-9cb6d0e28a40,MOGADISCIO,63260,2.033333,45.35,9
1d097262-711d-e811-a6d2-9cb6d0e28a40,CHISIMAIO,63270,NaN,42.433333,10
20097262-711d-e811-a6d2-9cb6d0e28a40,MAKALE,63330,13.5,39.483333,2070
23097262-711d-e811-a6d2-9cb6d0e28a40,GONDAR,63331,12.55,37.416667,1967
26097262-711d-e811-a6d2-9cb6d0e28a40,BAHAR DAR,63332,11.6,37.416667,1770
29097262-711d-e811-a6d2-9cb6d0e28a40,COMBOLCHA,63333,11.116667,39.733333,1903
2c097262-711d-e811-a6d2-9cb6d0e28a40,DEBREMARCOS,63334,10.333333,37.666667,2515
a734da68-711d-e811-a6d2-9cb6d0e28a40,LEKEMTE,63340,9.083333,36.45,2080
aa34da68-711d-e811-a6d2-9cb6d0e28a40,JIMMA,63402,7.666667,36.833333,1725
ad34da68-711d-e811-a6d2-9cb6d0e28a40,GORE,63403,8.15,35.533333,2002
b034da68-711d-e811-a6d2-9cb6d0e28a40,ADDIS ABABA-BOLE,63450,9.033333,38.75,2354
b334da68-711d-e811-a6d2-9cb6d0e28a40,HARAR MEDA,63451,8.733333,38.95,1900
b634da68-711d-e811-a6d2-9cb6d0e28a40,METEHARA,63453,8.866667,39.9,930
b934da68-711d-e811-a6d2-9cb6d0e28a40,AWASSA,63460,7.083333,38.483333,1750
bc34da68-711d-e811-a6d2-9cb6d0e28a40,DIREDAWA,63471,9.6,41.85,1260
bf34da68-711d-e811-a6d2-9cb6d0e28a40,ROBE/BALE,63474,7.133333,40,2480
7ef7456f-711d-e811-a6d2-9cb6d0e28a40,GODE,63478,5.9,43.583333,295
81f7456f-711d-e811-a6d2-9cb6d0e28a40,ARBA MINCH,63500,6.083333,37.633333,1290
84f7456f-711d-e811-a6d2-9cb6d0e28a40,NEGHELLE,63533,5.333333,39.566667,1544
87f7456f-711d-e811-a6d2-9cb6d0e28a40,ARUA,63602,3.05,30.916667,1211
8af7456f-711d-e811-a6d2-9cb6d0e28a40,LODWAR,63612,3.118611,35.64,505.97
8df7456f-711d-e811-a6d2-9cb6d0e28a40,PARAA,63628,2.3,31.583333,693
90f7456f-711d-e811-a6d2-9cb6d0e28a40,GULU,63630,2.75,32.333333,1105
93f7456f-711d-e811-a6d2-9cb6d0e28a40,MASINDI,63654,1.683333,31.716667,1147
96f7456f-711d-e811-a6d2-9cb6d0e28a40,SOROTI,63658,1.716667,33.616667,1123
f9aad575-711d-e811-a6d2-9cb6d0e28a40,KITALE,63661,1.016944,35.011667,560.83
fcaad575-711d-e811-a6d2-9cb6d0e28a40,WAJIR,63671,1.74,40.086667,243.84
ffaad575-711d-e811-a6d2-9cb6d0e28a40,KASESE,63674,NaN,30.1,961
02abd575-711d-e811-a6d2-9cb6d0e28a40,KAMPALA,63680,NaN,32.616667,1140
05abd575-711d-e811-a6d2-9cb6d0e28a40,JINJA,63682,NaN,33.183333,1173
08abd575-711d-e811-a6d2-9cb6d0e28a40,TORORO,63684,NaN,34.166667,1171
0babd575-711d-e811-a6d2-9cb6d0e28a40,ELDORET INTERNATIONAL AIRPORT,63688,NaN,35.223611,1940.97
0eabd575-711d-e811-a6d2-9cb6d0e28a40,MERU,63695,NaN,37.650833,1524
11abd575-711d-e811-a6d2-9cb6d0e28a40,MBARARA,63702,NaN,30.65,1413
28996f7c-711d-e811-a6d2-9cb6d0e28a40,ENTEBBE AIRPORT,63705,NaN,32.45,1155
2b996f7c-711d-e811-a6d2-9cb6d0e28a40,KISUMU,63708,NaN,34.728889,1148.79
2e996f7c-711d-e811-a6d2-9cb6d0e28a40,KISII,63709,NaN,34.788611,1770.89
31996f7c-711d-e811-a6d2-9cb6d0e28a40,NAKURU,63714,NaN,36.1025,1901.04
34996f7c-711d-e811-a6d2-9cb6d0e28a40,NYERI,63717,NaN,36.980556,1798.32
37996f7c-711d-e811-a6d2-9cb6d0e28a40,EMBU,63720,NaN,37.458889,1493.52
3a996f7c-711d-e811-a6d2-9cb6d0e28a40,GARISSA,63723,NaN,39.648611,128.02
3d996f7c-711d-e811-a6d2-9cb6d0e28a40,KABALE,63726,-1.25,29.983333,1869
40996f7c-711d-e811-a6d2-9cb6d0e28a40,BUKOBA,63729,-1.333333,31.816667,1137
6ca6fe82-711d-e811-a6d2-9cb6d0e28a40,MUSOMA,63733,-1.5,33.8,1147
6fa6fe82-711d-e811-a6d2-9cb6d0e28a40,JOMO KENYATTA NTERNATIONAL AIRPORT,63740,-1.3275,36.916389,1624.28
72a6fe82-711d-e811-a6d2-9cb6d0e28a40,DAGORETTI CORNER,63741,-1.303611,36.759722,1798.32
75a6fe82-711d-e811-a6d2-9cb6d0e28a40,MWANZA,63756,-2.466667,32.916667,1140
78a6fe82-711d-e811-a6d2-9cb6d0e28a40,LAMU,63772,-2.204444,40.836944,1.83
7ba6fe82-711d-e811-a6d2-9cb6d0e28a40,SHINYANGA,63784,-3.65,33.35,1000
7ea6fe82-711d-e811-a6d2-9cb6d0e28a40,ARUSHA,63789,-3.333333,36.616667,1387
81a6fe82-711d-e811-a6d2-9cb6d0e28a40,MOSHI,63790,-3.35,37.333333,831
a6ce2d89-711d-e811-a6d2-9cb6d0e28a40,KILIMANJARO INT,63791,-3.416667,37.066667,896
a9ce2d89-711d-e811-a6d2-9cb6d0e28a40,VOI,63793,-3.398056,38.558056,559.92
acce2d89-711d-e811-a6d2-9cb6d0e28a40,KIGOMA,63801,-4.883333,29.633333,885
afce2d89-711d-e811-a6d2-9cb6d0e28a40,SINGIDA,63810,-4.8,34.716667,1307
b2ce2d89-711d-e811-a6d2-9cb6d0e28a40,SAME,63816,-4.083333,37.716667,872
b5ce2d89-711d-e811-a6d2-9cb6d0e28a40,MOMBASA INTERNATIONAL AIRPORT,63820,-4.015,39.606389,5.49
b8ce2d89-711d-e811-a6d2-9cb6d0e28a40,TABORA AIRPORT,63832,-5.083333,32.833333,1190
bbce2d89-711d-e811-a6d2-9cb6d0e28a40,HANDENI,63840,-5.433333,38.033333,756
0da7378f-711d-e811-a6d2-9cb6d0e28a40,TANGA,63844,-5.083333,39.066667,35
10a7378f-711d-e811-a6d2-9cb6d0e28a40,PEMBA/KARUME,63845,-5.25,39.816667,25
13a7378f-711d-e811-a6d2-9cb6d0e28a40,DODOMA,63862,-6.166667,35.766667,1120
16a7378f-711d-e811-a6d2-9cb6d0e28a40,MOROGORO,63866,-6.833333,37.65,526
19a7378f-711d-e811-a6d2-9cb6d0e28a40,ZANZIBAR/KISAUNI,63870,-6.216667,39.216667,15
1ca7378f-711d-e811-a6d2-9cb6d0e28a40,SUMBAWANGA,63881,-7.966667,31.633333,1923
1fa7378f-711d-e811-a6d2-9cb6d0e28a40,IRINGA,63887,-7.666667,35.75,1428
22a7378f-711d-e811-a6d2-9cb6d0e28a40,DAR ES SALAAM INT,63894,-6.866667,39.2,55
44073795-711d-e811-a6d2-9cb6d0e28a40,MAFIA KILINDONI,63895,-7.916667,39.666667,21
47073795-711d-e811-a6d2-9cb6d0e28a40,MBEYA,63932,-8.933333,33.466667,1707
4a073795-711d-e811-a6d2-9cb6d0e28a40,SONGEA,63962,-10.683333,35.583333,1067
4d073795-711d-e811-a6d2-9cb6d0e28a40,NACHINGWEA,63969,-10.35,38.75,465
50073795-711d-e811-a6d2-9cb6d0e28a40,MTWARA,63971,-10.266667,40.183333,113
53073795-711d-e811-a6d2-9cb6d0e28a40,SEYCHELLES INTERNATIONAL AIRPORT,63980,-4.666667,55.516667,3
56073795-711d-e811-a6d2-9cb6d0e28a40,PRASLIN,63981,-5.316667,55.683333,3
59073795-711d-e811-a6d2-9cb6d0e28a40,SEYCHELLES INTER. AIRPORT (RAWINSONDE STATION),63985,-4.683333,55.516667,0
5c073795-711d-e811-a6d2-9cb6d0e28a40,DESROCHES,63994,-5.693889,53.650278,3
93b3de9b-711d-e811-a6d2-9cb6d0e28a40,ALDABRA,63995,-9.35,46.533333,4
96b3de9b-711d-e811-a6d2-9cb6d0e28a40,FARQUHAR,63996,-10.1,51.166667,3
99b3de9b-711d-e811-a6d2-9cb6d0e28a40,MBANDAKA,64005,NaN,18.266667,317
9cb3de9b-711d-e811-a6d2-9cb6d0e28a40,GEMENA,64006,3.283333,19.783333,446
9fb3de9b-711d-e811-a6d2-9cb6d0e28a40,BASANKUSU,64008,1.216667,19.8,353
a2b3de9b-711d-e811-a6d2-9cb6d0e28a40,LISALA,64014,2.316667,21.566667,463
a5b3de9b-711d-e811-a6d2-9cb6d0e28a40,LIBENGE,64015,3.633333,18.633333,359
a8b3de9b-711d-e811-a6d2-9cb6d0e28a40,BUMBA,64016,2.183333,22.55,361
d75ad7a1-711d-e811-a6d2-9cb6d0e28a40,BASOKO,64018,1.25,23.6,366
da5ad7a1-711d-e811-a6d2-9cb6d0e28a40,BONDO,64021,3.8,23.816667,474
dd5ad7a1-711d-e811-a6d2-9cb6d0e28a40,BUTA,64034,2.783333,24.783333,410
e05ad7a1-711d-e811-a6d2-9cb6d0e28a40,KISANGANI,64040,NaN,25.183333,396
e35ad7a1-711d-e811-a6d2-9cb6d0e28a40,BAFWASENDE,64056,1.083333,27.133333,524
e65ad7a1-711d-e811-a6d2-9cb6d0e28a40,ISIRO,64062,2.766667,27.65,764
e95ad7a1-711d-e811-a6d2-9cb6d0e28a40,MAMBASA,64071,1.366667,29.066667,855
ec5ad7a1-711d-e811-a6d2-9cb6d0e28a40,BUTEMBO,64072,NaN,29.266667,1840
e37bd9a7-711d-e811-a6d2-9cb6d0e28a40,WATSA,64074,3.066667,29.5,0
e67bd9a7-711d-e811-a6d2-9cb6d0e28a40,BUNIA,64076,1.5,30.216667,1239
e97bd9a7-711d-e811-a6d2-9cb6d0e28a40,BUNIA-RUAMPARA,64077,1.566667,30.216667,0
ec7bd9a7-711d-e811-a6d2-9cb6d0e28a40,LUKOLELA,64101,-1.05,17.2,0
ef7bd9a7-711d-e811-a6d2-9cb6d0e28a40,BANDUNDU,64108,-3.3,17.35,324
f27bd9a7-711d-e811-a6d2-9cb6d0e28a40,INONGO,64115,-1.966667,18.266667,300
f57bd9a7-711d-e811-a6d2-9cb6d0e28a40,BOENDE,64126,NaN,20.85,351
f87bd9a7-711d-e811-a6d2-9cb6d0e28a40,LODJA,64146,-3.483333,23.466667,500
cb06f1ad-711d-e811-a6d2-9cb6d0e28a40,KINDU,64155,-2.95,25.916667,497
ce06f1ad-711d-e811-a6d2-9cb6d0e28a40,KALIMA,64156,-2.6,26.55,0
d106f1ad-711d-e811-a6d2-9cb6d0e28a40,RUTSHURU,64157,-1.183333,29.45,1275
d406f1ad-711d-e811-a6d2-9cb6d0e28a40,UBUNDU,64159,NaN,25.45,0
d706f1ad-711d-e811-a6d2-9cb6d0e28a40,WALIKALE,64170,-1.416667,27,0
da06f1ad-711d-e811-a6d2-9cb6d0e28a40,BUKAVU,64180,-2.516667,28.85,1612
dd06f1ad-711d-e811-a6d2-9cb6d0e28a40,GOMA,64184,-1.683333,29.233333,1552
e006f1ad-711d-e811-a6d2-9cb6d0e28a40,MOANDA,64201,-6,12.416667,27
f6ce36b4-711d-e811-a6d2-9cb6d0e28a40,KITONA,64203,-5.916667,12.45,120
f9ce36b4-711d-e811-a6d2-9cb6d0e28a40,BOMA,64204,-5.85,13.1,8
fcce36b4-711d-e811-a6d2-9cb6d0e28a40,INGA ,64206,-5.516667,13.583333,277
ffce36b4-711d-e811-a6d2-9cb6d0e28a40,MATADI,64207,-5.8,13.433333,340
02cf36b4-711d-e811-a6d2-9cb6d0e28a40,LUOZI,64209,-4.95,14.133333,236
05cf36b4-711d-e811-a6d2-9cb6d0e28a40,KINSHASA N'DJILI,64210,-4.383333,15.433333,312
08cf36b4-711d-e811-a6d2-9cb6d0e28a40,KINSHASA N'DOLO,64211,-4.316667,15.316667,282
0bcf36b4-711d-e811-a6d2-9cb6d0e28a40,KENGE,64217,-4.916667,17.066667,563
d02131ba-711d-e811-a6d2-9cb6d0e28a40,KINSHASA BINZA,64220,-4.366667,15.25,0
d32131ba-711d-e811-a6d2-9cb6d0e28a40,KIKWIT,64222,-5.033333,18.8,449
d62131ba-711d-e811-a6d2-9cb6d0e28a40,ILEBO,64224,-4.333333,20.583333,420
d92131ba-711d-e811-a6d2-9cb6d0e28a40,TSHIKAPA,64228,-6.416667,20.85,481
dc2131ba-711d-e811-a6d2-9cb6d0e28a40,KANANGA,64235,-5.883333,22.416667,657
df2131ba-711d-e811-a6d2-9cb6d0e28a40,LUSAMBO,64246,-4.966667,23.433333,424
e22131ba-711d-e811-a6d2-9cb6d0e28a40,MBUJI-MAYI,64247,-6.166667,23.616667,677
e52131ba-711d-e811-a6d2-9cb6d0e28a40,LUPUTA,64248,-7.133333,23.733333,877
e82131ba-711d-e811-a6d2-9cb6d0e28a40,KASONGO,64264,-4.516667,26.583333,0
98322bc0-711d-e811-a6d2-9cb6d0e28a40,KONGOLO,64276,-5.35,27,561
9b322bc0-711d-e811-a6d2-9cb6d0e28a40,MANONO ,64282,-7.283333,27.433333,633
9e322bc0-711d-e811-a6d2-9cb6d0e28a40,KALEMIE,64285,-5.883333,29.183333,818
a1322bc0-711d-e811-a6d2-9cb6d0e28a40,DILOLO,64301,-10.683333,22.333333,1028
a4322bc0-711d-e811-a6d2-9cb6d0e28a40,SANDOA,64303,-9.633333,22.85,921
a7322bc0-711d-e811-a6d2-9cb6d0e28a40,KAMINA BASE,64315,-8.633333,25.25,1106
aa322bc0-711d-e811-a6d2-9cb6d0e28a40,KOLWEZI,64328,-10.716667,25.45,1526
5bda33c6-711d-e811-a6d2-9cb6d0e28a40,MITWABA,64348,-8.6,27.333333,1579
5eda33c6-711d-e811-a6d2-9cb6d0e28a40,LUBUMBASHI-LUANO,64360,-11.666667,27.483333,1298
61da33c6-711d-e811-a6d2-9cb6d0e28a40,LUBUMBASHI-KARAVIA,64370,-11.65,27.466667,0
64da33c6-711d-e811-a6d2-9cb6d0e28a40,KAMEMBE,64380,-2.47,28.92,1591
67da33c6-711d-e811-a6d2-9cb6d0e28a40,GISENYI,64381,-1.67,29.25,1554.4
6ada33c6-711d-e811-a6d2-9cb6d0e28a40,RUHENGERI,64383,-1.499444,29.6325,1860
6dda33c6-711d-e811-a6d2-9cb6d0e28a40,BUTARE,64384,-2.6,29.73,1768
70da33c6-711d-e811-a6d2-9cb6d0e28a40,KIGALI,64387,-1.965,30.132778,1497.47
129046cc-711d-e811-a6d2-9cb6d0e28a40,BUJUMBURA,64390,-3.316667,29.316667,783
159046cc-711d-e811-a6d2-9cb6d0e28a40,MUYINGA,64397,-2.833333,30.333333,1755
189046cc-711d-e811-a6d2-9cb6d0e28a40,POINTE-NOIRE,64400,-4.816667,11.9,17
1b9046cc-711d-e811-a6d2-9cb6d0e28a40,DOLISIE,64401,-4.2,12.7,331
1e9046cc-711d-e811-a6d2-9cb6d0e28a40,MOUYONDZI,64402,-4,13.95,512
219046cc-711d-e811-a6d2-9cb6d0e28a40,MAKABANA,64403,-3.483333,12.616667,161
249046cc-711d-e811-a6d2-9cb6d0e28a40,SIBITI,64405,-3.683333,13.35,530
279046cc-711d-e811-a6d2-9cb6d0e28a40,BRAZZAVILLE MAYA-MAYA,64450,-4.25,15.25,316
39bf43d2-711d-e811-a6d2-9cb6d0e28a40,M'POUYA,64452,-2.616667,16.216667,313
3cbf43d2-711d-e811-a6d2-9cb6d0e28a40,DJAMBALA,64453,-2.533333,14.766667,790
3fbf43d2-711d-e811-a6d2-9cb6d0e28a40,GAMBOMA,64454,-1.9,15.85,377
42bf43d2-711d-e811-a6d2-9cb6d0e28a40,MAKOUA,64456,NaN,15.65,380
45bf43d2-711d-e811-a6d2-9cb6d0e28a40,OUESSO,64458,1.616667,16.05,352
48bf43d2-711d-e811-a6d2-9cb6d0e28a40,IMPFONDO,64459,1.616667,18.066667,327
4bbf43d2-711d-e811-a6d2-9cb6d0e28a40,SOUANKE,64460,2.066667,14.033333,550
4ebf43d2-711d-e811-a6d2-9cb6d0e28a40,KELLE,64462,NaN,13.55,408
68debbd8-711d-e811-a6d2-9cb6d0e28a40,EWO,64463,-5.583333,14.816667,438
6bdebbd8-711d-e811-a6d2-9cb6d0e28a40,LIBREVILLE,64500,NaN,9.416667,15
6edebbd8-711d-e811-a6d2-9cb6d0e28a40,PORT-GENTIL,64501,NaN,8.75,4
71debbd8-711d-e811-a6d2-9cb6d0e28a40,MAYUMBA,64503,-3.416667,10.65,34
74debbd8-711d-e811-a6d2-9cb6d0e28a40,COCOBEACH,64504,1,9.6,16
77debbd8-711d-e811-a6d2-9cb6d0e28a40,TCHIBANGA,64507,-2.85,11.016667,79
7adebbd8-711d-e811-a6d2-9cb6d0e28a40,BITAM,64510,2.083333,11.483333,599
7ddebbd8-711d-e811-a6d2-9cb6d0e28a40,OYEM,64512,1.583333,11.566667,590
b976d4de-711d-e811-a6d2-9cb6d0e28a40,KOULAMOUTOU,64518,-1.116667,12.5,355
bc76d4de-711d-e811-a6d2-9cb6d0e28a40,MEKAMBO,64545,1.016667,13.933333,501
bf76d4de-711d-e811-a6d2-9cb6d0e28a40,MOUILA,64550,-1.866667,11.016667,89
c276d4de-711d-e811-a6d2-9cb6d0e28a40,LAMBARENE,64551,NaN,10.233333,26
c576d4de-711d-e811-a6d2-9cb6d0e28a40,MITZIC,64552,NaN,11.533333,583
c876d4de-711d-e811-a6d2-9cb6d0e28a40,MAKOKOU,64556,NaN,12.866667,515
cb76d4de-711d-e811-a6d2-9cb6d0e28a40,LASTOURVILLE,64560,NaN,12.716667,483
ce76d4de-711d-e811-a6d2-9cb6d0e28a40,MVENGUE,64570,-1.65,13.433333,444
6fd101e5-711d-e811-a6d2-9cb6d0e28a40,OKONDJA,64580,NaN,13.783333,335
72d101e5-711d-e811-a6d2-9cb6d0e28a40,BERBERATI,64600,4.25,15.8,583
75d101e5-711d-e811-a6d2-9cb6d0e28a40,BOUAR,64601,5.966667,15.633333,1020
78d101e5-711d-e811-a6d2-9cb6d0e28a40,BOSSEMBELE,64605,5.266667,17.633333,674
7bd101e5-711d-e811-a6d2-9cb6d0e28a40,BOSSANGOA,64610,6.483333,17.433333,465
7ed101e5-711d-e811-a6d2-9cb6d0e28a40,BANGUI,64650,4.4,18.516667,366
81d101e5-711d-e811-a6d2-9cb6d0e28a40,N'DELE,64654,8.4,20.65,511
84d101e5-711d-e811-a6d2-9cb6d0e28a40,BRIA,64655,6.533333,21.983333,584
10f051eb-711d-e811-a6d2-9cb6d0e28a40,BANGASSOU,64656,4.733333,22.833333,500
13f051eb-711d-e811-a6d2-9cb6d0e28a40,BIRAO,64658,10.283333,22.783333,464
16f051eb-711d-e811-a6d2-9cb6d0e28a40,OBO,64659,5.4,26.5,651
19f051eb-711d-e811-a6d2-9cb6d0e28a40,BAMBARI,64660,5.85,20.65,475
1cf051eb-711d-e811-a6d2-9cb6d0e28a40,YALINGA,64661,6.5,23.266667,602
1ff051eb-711d-e811-a6d2-9cb6d0e28a40,ALINDAO,64662,5.05,21.2,449
22f051eb-711d-e811-a6d2-9cb6d0e28a40,MOBAYE,64665,4.316667,21.183333,406
25f051eb-711d-e811-a6d2-9cb6d0e28a40,NDJAMENA,64700,12.133333,15.033333,295
4609abf1-711d-e811-a6d2-9cb6d0e28a40,MAO,64701,14.116667,15.316667,355
4909abf1-711d-e811-a6d2-9cb6d0e28a40,BOL-BERIM,64702,13.433333,14.733333,292
4c09abf1-711d-e811-a6d2-9cb6d0e28a40,BOUSSO,64705,10.483333,16.716667,336
4f09abf1-711d-e811-a6d2-9cb6d0e28a40,MOUNDOU,64706,8.566667,16.066667,410
5209abf1-711d-e811-a6d2-9cb6d0e28a40,MOUSSORO,64707,13.65,16.5,0
5509abf1-711d-e811-a6d2-9cb6d0e28a40,BOKORO,64708,12.383333,17.05,301
5809abf1-711d-e811-a6d2-9cb6d0e28a40,PALA,64709,9.366667,14.966667,320
5b09abf1-711d-e811-a6d2-9cb6d0e28a40,SARH,64750,9.15,18.383333,365
f0de06f8-711d-e811-a6d2-9cb6d0e28a40,ATI,64751,13.216667,18.316667,334
f3de06f8-711d-e811-a6d2-9cb6d0e28a40,FAYA,64753,18,19.166667,234
f6de06f8-711d-e811-a6d2-9cb6d0e28a40,AM-TIMAN,64754,11.033333,20.283333,436
f9de06f8-711d-e811-a6d2-9cb6d0e28a40,GOZ-BEIDA,64755,12.233333,21.416667,0
fcde06f8-711d-e811-a6d2-9cb6d0e28a40,ABECHE,64756,13.85,20.85,549
ffde06f8-711d-e811-a6d2-9cb6d0e28a40,FADA,64757,17.166667,21.55,0
02df06f8-711d-e811-a6d2-9cb6d0e28a40,MONGO,64758,12.183333,18.683333,430
fcb513fe-711d-e811-a6d2-9cb6d0e28a40,MALABO,64810,3.75,8.766667,56
ffb513fe-711d-e811-a6d2-9cb6d0e28a40,BATA (RIO MUNI),64820,1.9,9.8,8
02b613fe-711d-e811-a6d2-9cb6d0e28a40,MAROUA-SALAK,64851,10.45,14.25,422
05b613fe-711d-e811-a6d2-9cb6d0e28a40,GAROUA,64860,9.333333,13.383333,244
08b613fe-711d-e811-a6d2-9cb6d0e28a40,NGAOUNDERE,64870,7.35,13.566667,1104
0bb613fe-711d-e811-a6d2-9cb6d0e28a40,BANYO,64880,6.783333,11.816667,1110
0eb613fe-711d-e811-a6d2-9cb6d0e28a40,MEIGANGA,64882,6.533333,14.366667,1027
11b613fe-711d-e811-a6d2-9cb6d0e28a40,MAMFE,64890,5.716667,9.283333,126
79a79904-721d-e811-a6d2-9cb6d0e28a40,BAMENDA,64892,6.05,10.116667,1239
7ca79904-721d-e811-a6d2-9cb6d0e28a40,KOUNDJA,64893,5.65,10.75,1210
7fa79904-721d-e811-a6d2-9cb6d0e28a40,YOKO,64900,5.55,12.366667,1031
82a79904-721d-e811-a6d2-9cb6d0e28a40,BETARE-OYA,64901,5.6,14.066667,804
85a79904-721d-e811-a6d2-9cb6d0e28a40,DOUALA OBS.,64910,4,9.733333,9
8ba79904-721d-e811-a6d2-9cb6d0e28a40,NKONGSAMBA,64911,4.95,9.933333,821
8ea79904-721d-e811-a6d2-9cb6d0e28a40,BAFIA,64920,4.733333,11.25,500
f8ae120b-721d-e811-a6d2-9cb6d0e28a40,BERTOUA,64930,4.6,13.733333,668
fbae120b-721d-e811-a6d2-9cb6d0e28a40,BATOURI,64931,4.466667,14.366667,656
feae120b-721d-e811-a6d2-9cb6d0e28a40,YAOUNDE,64950,3.833333,11.516667,760
01af120b-721d-e811-a6d2-9cb6d0e28a40,ABONG-MBANG,64960,3.966667,13.2,693
04af120b-721d-e811-a6d2-9cb6d0e28a40,LOMIE,64961,3.15,13.616667,624
07af120b-721d-e811-a6d2-9cb6d0e28a40,KRIBI,64971,2.95,9.9,16
0aaf120b-721d-e811-a6d2-9cb6d0e28a40,YELWA,65001,10.883333,4.75,244
0daf120b-721d-e811-a6d2-9cb6d0e28a40,BIRNIN KEBBI,65003,12.466667,4.216667,220
3b66b511-721d-e811-a6d2-9cb6d0e28a40,SOKOTO,65010,13.016667,5.25,350.8
3e66b511-721d-e811-a6d2-9cb6d0e28a40,GUSAU,65015,12.166667,6.7,463.9
4166b511-721d-e811-a6d2-9cb6d0e28a40,KADUNA,65019,10.6,7.45,645.4
4466b511-721d-e811-a6d2-9cb6d0e28a40,KATSINA,65028,13.016667,7.683333,517.6
4766b511-721d-e811-a6d2-9cb6d0e28a40,ZARIA,65030,11.1,7.683333,110.9
4a66b511-721d-e811-a6d2-9cb6d0e28a40,KANO,65046,12.05,8.533333,472.5
4d66b511-721d-e811-a6d2-9cb6d0e28a40,BAUCHI,65055,10.283333,9.816667,609.7
5066b511-721d-e811-a6d2-9cb6d0e28a40,NGURU,65064,12.883333,10.466667,343.1
99646018-721d-e811-a6d2-9cb6d0e28a40,POTISKUM,65073,11.7,11.033333,414.8
9c646018-721d-e811-a6d2-9cb6d0e28a40,GOMBE,65075,10.283333,11.15,505
9f646018-721d-e811-a6d2-9cb6d0e28a40,MAIDUGURI,65082,11.85,13.083333,353.8
a2646018-721d-e811-a6d2-9cb6d0e28a40,ILORIN,65101,8.483333,4.583333,307.4
a5646018-721d-e811-a6d2-9cb6d0e28a40,SHAKI,65108,8.666667,3.383333,456
a8646018-721d-e811-a6d2-9cb6d0e28a40,BIDA,65112,9.1,6.016667,144.3
ab646018-721d-e811-a6d2-9cb6d0e28a40,MINNA,65123,9.616667,6.533333,256.4
ae646018-721d-e811-a6d2-9cb6d0e28a40,LAFIA,65124,8.55,8.533333,181.53
2acefe1e-721d-e811-a6d2-9cb6d0e28a40,ABUJA,65125,9.25,7,343.1
2dcefe1e-721d-e811-a6d2-9cb6d0e28a40,JOS,65134,9.866667,8.9,1290
30cefe1e-721d-e811-a6d2-9cb6d0e28a40,IBI,65145,8.183333,9.75,110.7
33cefe1e-721d-e811-a6d2-9cb6d0e28a40,YOLA,65167,9.233333,12.466667,186.1
36cefe1e-721d-e811-a6d2-9cb6d0e28a40,ISEYIN,65200,7.966667,3.6,330
39cefe1e-721d-e811-a6d2-9cb6d0e28a40,LAGOS IKEJA,65201,6.583333,3.333333,39.3
3ccefe1e-721d-e811-a6d2-9cb6d0e28a40,LAGOS OSHODI,65202,6.5,3.383333,0
d6245825-721d-e811-a6d2-9cb6d0e28a40,LAGOS ROOF,65203,6.45,3.4,14
d9245825-721d-e811-a6d2-9cb6d0e28a40,IBADAN,65208,7.433333,3.9,227.2
dc245825-721d-e811-a6d2-9cb6d0e28a40,IJEBU ODE,65210,6.833333,3.933333,77
df245825-721d-e811-a6d2-9cb6d0e28a40,ABEOKUTA,65213,7.166667,3.333333,104
e2245825-721d-e811-a6d2-9cb6d0e28a40,OSHOGBO,65215,7.783333,4.483333,302
e5245825-721d-e811-a6d2-9cb6d0e28a40,ONDO,65222,7.1,4.833333,287.3
e8245825-721d-e811-a6d2-9cb6d0e28a40,ADO EKITI,65224,7.65,5.2,453.64
eb245825-721d-e811-a6d2-9cb6d0e28a40,BENIN CITY,65229,6.316667,5.1,77.8
19450d2c-721d-e811-a6d2-9cb6d0e28a40,AKURE,65232,7.283333,5.3,375
1c450d2c-721d-e811-a6d2-9cb6d0e28a40,WARRI,65236,5.516667,5.733333,6.1
1f450d2c-721d-e811-a6d2-9cb6d0e28a40,LOKOJA,65243,7.783333,6.733333,62.5
22450d2c-721d-e811-a6d2-9cb6d0e28a40,ONITSHA,65245,6.15,6.783333,67
25450d2c-721d-e811-a6d2-9cb6d0e28a40,AWKA,65246,6.2,7.05,325
28450d2c-721d-e811-a6d2-9cb6d0e28a40,PORT HARCOURT,65250,4.85,7.016667,19.5
2b450d2c-721d-e811-a6d2-9cb6d0e28a40,OWERRI,65252,5.483333,7,91
2e450d2c-721d-e811-a6d2-9cb6d0e28a40,UMUAHIA,65254,5.483333,7.55,122
2890ce32-721d-e811-a6d2-9cb6d0e28a40,ENUGU,65257,6.466667,7.55,141.8
2b90ce32-721d-e811-a6d2-9cb6d0e28a40,UYO,65260,5.051111,7.916667,38
2e90ce32-721d-e811-a6d2-9cb6d0e28a40,CALABAR,65264,4.966667,8.35,0
3190ce32-721d-e811-a6d2-9cb6d0e28a40,MAKURDI,65271,7.733333,8.533333,112.9
3490ce32-721d-e811-a6d2-9cb6d0e28a40,IKOM,65273,5.966667,8.7,119
3790ce32-721d-e811-a6d2-9cb6d0e28a40,OBUDU,65274,6.6,9.316667,284.9
3a90ce32-721d-e811-a6d2-9cb6d0e28a40,OGOJA,65275,6.666667,8.8,117
fedfc838-721d-e811-a6d2-9cb6d0e28a40,KANDI,65306,11.133333,2.933333,292
01e0c838-721d-e811-a6d2-9cb6d0e28a40,PEPORIYAKOU-NATITINGOU,65319,10.316667,1.383333,461
04e0c838-721d-e811-a6d2-9cb6d0e28a40,PARAKOU,65330,9.35,2.616667,393
07e0c838-721d-e811-a6d2-9cb6d0e28a40,SAVE,65335,8.033333,2.466667,200
0ae0c838-721d-e811-a6d2-9cb6d0e28a40,BOHICON,65338,7.166667,2.066667,167
0de0c838-721d-e811-a6d2-9cb6d0e28a40,COTONOU,65344,6.35,2.383333,9
10e0c838-721d-e811-a6d2-9cb6d0e28a40,DAPAON,65351,10.866667,NaN,330
9e1ac83e-721d-e811-a6d2-9cb6d0e28a40,MANGO,65352,10.366667,NaN,146
a11ac83e-721d-e811-a6d2-9cb6d0e28a40,NIAMTOUGOU,65355,9.766667,1.1,343
a41ac83e-721d-e811-a6d2-9cb6d0e28a40,KARA,65357,9.55,1.166667,341
a71ac83e-721d-e811-a6d2-9cb6d0e28a40,SOKODE,65361,8.983333,1.15,387
aa1ac83e-721d-e811-a6d2-9cb6d0e28a40,ATAKPAME,65376,7.583333,1.116667,402
ad1ac83e-721d-e811-a6d2-9cb6d0e28a40,KOUMA-KONDA,65378,6.95,NaN,641
b01ac83e-721d-e811-a6d2-9cb6d0e28a40,TABLIGBO,65380,6.583333,1.5,44
b31ac83e-721d-e811-a6d2-9cb6d0e28a40,LOME,65387,6.166667,1.25,25
127dc344-721d-e811-a6d2-9cb6d0e28a40,NAVRONGO,65401,10.9,-1.1,213.4
157dc344-721d-e811-a6d2-9cb6d0e28a40,WA,65404,10.05,-2.5,322.7
187dc344-721d-e811-a6d2-9cb6d0e28a40,BOLE,65416,9.033333,-2.483333,299.5
1b7dc344-721d-e811-a6d2-9cb6d0e28a40,TAMALE,65418,9.55,NaN,168.8
1e7dc344-721d-e811-a6d2-9cb6d0e28a40,YENDI,65420,9.45,NaN,195.2
217dc344-721d-e811-a6d2-9cb6d0e28a40,WENCHI,65432,7.75,-2.1,338.9
bc72144b-721d-e811-a6d2-9cb6d0e28a40,KETE-KRACHI,65437,7.816667,NaN,122
bf72144b-721d-e811-a6d2-9cb6d0e28a40,SUNYANI,65439,7.333333,-2.333333,306.8
c272144b-721d-e811-a6d2-9cb6d0e28a40,KUMASI,65442,6.716667,-1.6,286.3
c572144b-721d-e811-a6d2-9cb6d0e28a40,SEFWI BEKWAI,65445,6.2,-2.333333,170.8
c872144b-721d-e811-a6d2-9cb6d0e28a40,ABETIFI,65450,6.666667,NaN,594.7
cb72144b-721d-e811-a6d2-9cb6d0e28a40,HO,65453,6.6,NaN,157.6
ce72144b-721d-e811-a6d2-9cb6d0e28a40,AKIM ODA,65457,5.933333,NaN,139.4
8f0a8951-721d-e811-a6d2-9cb6d0e28a40,KOFORIDUA,65459,6.083333,NaN,166.5
920a8951-721d-e811-a6d2-9cb6d0e28a40,AKUSE,65460,6.1,NaN,17.4
950a8951-721d-e811-a6d2-9cb6d0e28a40,AKATSI,65462,6.116667,NaN,53.6
980a8951-721d-e811-a6d2-9cb6d0e28a40,AXIM,65465,4.866667,-2.233333,37.8
9b0a8951-721d-e811-a6d2-9cb6d0e28a40,TAKORADI,65467,4.883333,-1.766667,4.6
9e0a8951-721d-e811-a6d2-9cb6d0e28a40,SALTPOND,65469,5.2,-1.066667,439
a10a8951-721d-e811-a6d2-9cb6d0e28a40,ACCRA,65472,5.6,NaN,67.7
de6b9157-721d-e811-a6d2-9cb6d0e28a40,TEMA,65473,5.616667,NaN,14
e16b9157-721d-e811-a6d2-9cb6d0e28a40,ADA,65475,5.783333,NaN,5.2
e46b9157-721d-e811-a6d2-9cb6d0e28a40,MARKOYE,65500,14.633333,NaN,295
e76b9157-721d-e811-a6d2-9cb6d0e28a40,DORI,65501,14.033333,NaN,277
ea6b9157-721d-e811-a6d2-9cb6d0e28a40,OUAHIGOUYA,65502,13.583333,-2.433333,329
ed6b9157-721d-e811-a6d2-9cb6d0e28a40,OUAGADOUGOU,65503,12.35,-1.516667,306
f06b9157-721d-e811-a6d2-9cb6d0e28a40,DEDOUGOU,65505,12.466667,-3.483333,300
85549a5d-721d-e811-a6d2-9cb6d0e28a40,FADA N'GOURMA,65507,12.066667,NaN,292
88549a5d-721d-e811-a6d2-9cb6d0e28a40,BOBO-DIOULASSO,65510,11.166667,-4.3,432
8b549a5d-721d-e811-a6d2-9cb6d0e28a40,BOROMO,65516,11.733333,-2.916667,264
8e549a5d-721d-e811-a6d2-9cb6d0e28a40,PO,65518,11.166667,-1.15,326
91549a5d-721d-e811-a6d2-9cb6d0e28a40,GAOUA,65522,10.333333,-3.183333,335
94549a5d-721d-e811-a6d2-9cb6d0e28a40,MANGODARA,65523,9.9,-4.35,260
97549a5d-721d-e811-a6d2-9cb6d0e28a40,ODIENNE,65528,9.5,-7.566667,421
7382bf63-721d-e811-a6d2-9cb6d0e28a40,KORHOGO,65536,9.416667,-5.616667,381
7682bf63-721d-e811-a6d2-9cb6d0e28a40,BONDOUKOU,65545,8.05,-2.783333,370
7982bf63-721d-e811-a6d2-9cb6d0e28a40,MAN,65548,7.383333,-7.516667,340
7c82bf63-721d-e811-a6d2-9cb6d0e28a40,BOUAKE,65555,7.733333,-5.066667,376
7f82bf63-721d-e811-a6d2-9cb6d0e28a40,GAGNOA,65557,6.133333,-5.95,210
8282bf63-721d-e811-a6d2-9cb6d0e28a40,DALOA,65560,6.866667,-6.466667,277
8582bf63-721d-e811-a6d2-9cb6d0e28a40,DIMBOKRO,65562,6.65,-4.7,92
87a8d669-721d-e811-a6d2-9cb6d0e28a40,YAMOUSSOUKRO,65563,6.9,-5.35,213
8aa8d669-721d-e811-a6d2-9cb6d0e28a40,ABIDJAN,65578,5.25,-3.933333,8
8da8d669-721d-e811-a6d2-9cb6d0e28a40,ADIAKE,65585,5.3,-3.3,39
90a8d669-721d-e811-a6d2-9cb6d0e28a40,TABOU,65592,4.416667,-7.366667,21
93a8d669-721d-e811-a6d2-9cb6d0e28a40,SAN PEDRO ,65594,4.75,-6.65,30
96a8d669-721d-e811-a6d2-9cb6d0e28a40,SASSANDRA,65599,4.95,-6.083333,66
99a8d669-721d-e811-a6d2-9cb6d0e28a40,SPRIGGS PAYNE AIRPORT,65602,6.333333,-10.75,12
4c94dd6f-721d-e811-a6d2-9cb6d0e28a40,ROBERTS FIELD,65660,6.25,-10.35,18
4f94dd6f-721d-e811-a6d2-9cb6d0e28a40,CABINDA,66104,-5.55,12.183333,20
5294dd6f-721d-e811-a6d2-9cb6d0e28a40,NOQUI,66116,-5.866667,13.433333,0
5594dd6f-721d-e811-a6d2-9cb6d0e28a40,NBANZA-KONGO,66118,-6.266667,14.25,567
5894dd6f-721d-e811-a6d2-9cb6d0e28a40,MAQUELA DO ZOMBO,66121,-6.033333,15.116667,920
5b94dd6f-721d-e811-a6d2-9cb6d0e28a40,N'ZETO (AMBRIZETE),66130,-7.233333,12.866667,17
5e94dd6f-721d-e811-a6d2-9cb6d0e28a40,TOTO,66136,-7.166667,14.266667,540
538f9d76-721d-e811-a6d2-9cb6d0e28a40,CARMONA,66140,-7.583333,15,831
568f9d76-721d-e811-a6d2-9cb6d0e28a40,NEGAGE,66142,-7.683333,15.366667,1249
598f9d76-721d-e811-a6d2-9cb6d0e28a40,DUNDO,66152,-7.4,20.816667,776
5c8f9d76-721d-e811-a6d2-9cb6d0e28a40,LUANDA,66160,-8.85,13.233333,70
5f8f9d76-721d-e811-a6d2-9cb6d0e28a40,N'DALATANDO,66172,-9.283333,14.916667,795
628f9d76-721d-e811-a6d2-9cb6d0e28a40,CAMAXILO,66187,-8.366667,18.933333,1180
658f9d76-721d-e811-a6d2-9cb6d0e28a40,SUMBE ,66210,-11.2,13.85,0
6415c37c-721d-e811-a6d2-9cb6d0e28a40,MALANGE,66215,-9.55,16.366667,1142
6715c37c-721d-e811-a6d2-9cb6d0e28a40,MBANZA CONGO,66223,-6.266667,14.25,0
6a15c37c-721d-e811-a6d2-9cb6d0e28a40,SAURIMO (HENRIQUE DE CARVALHO),66226,-9.65,20.4,1080
6d15c37c-721d-e811-a6d2-9cb6d0e28a40,PORTO AMBOIM,66240,-10.7,13.75,5
658f9d76-721d-e811-a6d2-9cb6d0e28a40,SUMBE ,66260,-11.2,13.85,0
7315c37c-721d-e811-a6d2-9cb6d0e28a40,WAKU KUNGU (CELA),66270,-11.416667,15.116667,0
7615c37c-721d-e811-a6d2-9cb6d0e28a40,LUENA (LUSO),66285,-11.783333,19.916667,1357
75fcf782-721d-e811-a6d2-9cb6d0e28a40,CAZOMBO,66296,-11.866667,22.9,1126
78fcf782-721d-e811-a6d2-9cb6d0e28a40,LOBITO,66305,-12.366667,13.533333,3
7bfcf782-721d-e811-a6d2-9cb6d0e28a40,MONBACA (BENGUELA),66310,-12.583333,13.416667,4
7efcf782-721d-e811-a6d2-9cb6d0e28a40,HUAMBO (NOVA LISBOA),66318,-12.8,15.75,1701
81fcf782-721d-e811-a6d2-9cb6d0e28a40,BIE (SILVA PORTO),66325,-12.383333,16.95,1699
84fcf782-721d-e811-a6d2-9cb6d0e28a40,LUBANGO (SA DA BANDEIRA),66390,-14.933333,13.566667,1758
87fcf782-721d-e811-a6d2-9cb6d0e28a40,MENONGUE (SERPA PINTO),66410,-14.65,17.683333,1343
c6105c89-721d-e811-a6d2-9cb6d0e28a40,MOCAMEDES,66422,-15.2,12.15,45
c9105c89-721d-e811-a6d2-9cb6d0e28a40,MAVINGA,66447,-15.833333,20.35,0
cc105c89-721d-e811-a6d2-9cb6d0e28a40,BAIA DOS TIGRES,66450,-16.6,11.716667,1
cf105c89-721d-e811-a6d2-9cb6d0e28a40,PEREIRA DE ECA,66460,-17.083333,15.733333,1109
d2105c89-721d-e811-a6d2-9cb6d0e28a40,ROCADAS,66485,-16.716667,15,1099
d5105c89-721d-e811-a6d2-9cb6d0e28a40,MORONI AIRPORT (GRANDE-COMORE),67001,-11.7,43.233333,6
d8105c89-721d-e811-a6d2-9cb6d0e28a40,HAHAYA INT. AIRPORT,67002,-11.533333,43.266667,29
789f9d8f-721d-e811-a6d2-9cb6d0e28a40,OUANI (ANJOUAN),67004,-12.116667,44.433333,12
7b9f9d8f-721d-e811-a6d2-9cb6d0e28a40,PAMANDZI (MAYOTTE),67005,-12.805556,45.282778,0
7e9f9d8f-721d-e811-a6d2-9cb6d0e28a40,ANTSIRANANA,67009,-12.35,49.3,105
819f9d8f-721d-e811-a6d2-9cb6d0e28a40,FASCENE (NOSSI-BE),67012,-13.316667,48.316667,9
849f9d8f-721d-e811-a6d2-9cb6d0e28a40,VOHEMAR,67017,-13.366667,50,5
879f9d8f-721d-e811-a6d2-9cb6d0e28a40,ANALALAVA,67019,-14.633333,47.766667,57
8a9f9d8f-721d-e811-a6d2-9cb6d0e28a40,ANTSOHIHY,67020,-14.883333,47.983333,23
d363f095-721d-e811-a6d2-9cb6d0e28a40,ANDAPA,67022,-14.65,49.616667,474
d663f095-721d-e811-a6d2-9cb6d0e28a40,SAMBAVA,67023,-14.283333,50.166667,5
d963f095-721d-e811-a6d2-9cb6d0e28a40,ANTALAHA,67025,-14.883333,50.25,88
dc63f095-721d-e811-a6d2-9cb6d0e28a40,MAHAJANGA,67027,-15.666667,46.35,18
df63f095-721d-e811-a6d2-9cb6d0e28a40,BESALAMPY,67037,-16.75,44.483333,36
e263f095-721d-e811-a6d2-9cb6d0e28a40,MAEVATANANA,67045,-16.95,46.833333,79
e563f095-721d-e811-a6d2-9cb6d0e28a40,AMBOHITSILAOZANA,67067,-17.633333,48.5,780
ca3be89b-721d-e811-a6d2-9cb6d0e28a40,SAINTE-MARIE AERODROME,67072,-17.083333,49.816667,3
cd3be89b-721d-e811-a6d2-9cb6d0e28a40,MAINTIRANO,67073,-18.05,44.033333,23
d03be89b-721d-e811-a6d2-9cb6d0e28a40,ANTANANARIVO IVATO,67083,-18.8,47.483333,1276
d33be89b-721d-e811-a6d2-9cb6d0e28a40,ANTANANARIVO,67085,-18.866667,47.5,0
d63be89b-721d-e811-a6d2-9cb6d0e28a40,TOAMASINA,67095,-18.116667,49.4,6
d93be89b-721d-e811-a6d2-9cb6d0e28a40,ANTSIRABE,67107,-19.816667,47.066667,1532
2adc3aa2-721d-e811-a6d2-9cb6d0e28a40,MAHANORO,67113,-19.833333,48.8,5
2ddc3aa2-721d-e811-a6d2-9cb6d0e28a40,MORONDAVA,67117,-20.283333,44.316667,8
30dc3aa2-721d-e811-a6d2-9cb6d0e28a40,MOROMBE,67131,-21.75,43.366667,4
33dc3aa2-721d-e811-a6d2-9cb6d0e28a40,FIANARANTSOA,67137,-21.45,47.1,1109
36dc3aa2-721d-e811-a6d2-9cb6d0e28a40,MANANJARY,67143,-21.2,48.366667,6
39dc3aa2-721d-e811-a6d2-9cb6d0e28a40,RANOHIRA,67152,-22.55,45.4,824
3cdc3aa2-721d-e811-a6d2-9cb6d0e28a40,FARAFANGANA,67157,-22.8,47.833333,6
5838a3a8-721d-e811-a6d2-9cb6d0e28a40,TOLIARA,67161,-23.383333,43.733333,8
5b38a3a8-721d-e811-a6d2-9cb6d0e28a40,FAUX-CAP,67194,-25.55,45.533333,22
5e38a3a8-721d-e811-a6d2-9cb6d0e28a40,TAOLAGNARO,67197,-25.033333,46.95,9
6138a3a8-721d-e811-a6d2-9cb6d0e28a40,MUEDA,67201,-11.666667,39.55,847
6438a3a8-721d-e811-a6d2-9cb6d0e28a40,MOCIMBOA DA PRAIA,67205,-11.35,40.366667,29
6738a3a8-721d-e811-a6d2-9cb6d0e28a40,MATCHEDJE,67210,-11.6,35.433333,619
6a38a3a8-721d-e811-a6d2-9cb6d0e28a40,PEMBA,67215,-12.983333,40.533333,50
72c00caf-721d-e811-a6d2-9cb6d0e28a40,LICHINGA,67217,-13.3,35.233333,1365
75c00caf-721d-e811-a6d2-9cb6d0e28a40,MARRUPA,67221,-13.733333,37.55,838
78c00caf-721d-e811-a6d2-9cb6d0e28a40,MONTEPUEZ,67223,-13.133333,39.033333,535
7bc00caf-721d-e811-a6d2-9cb6d0e28a40,FURANCUNGO,67225,-14.9,33.6,0
7ec00caf-721d-e811-a6d2-9cb6d0e28a40,ULONGUE,67229,-14.733333,34.35,1311
81c00caf-721d-e811-a6d2-9cb6d0e28a40,CUAMBA,67231,-14.833333,36.516667,607
84c00caf-721d-e811-a6d2-9cb6d0e28a40,NAMPULA,67237,-15.1,39.283333,441
4fbd85b5-721d-e811-a6d2-9cb6d0e28a40,NACALA AIRPORT,67240,-14.483333,40.716667,87
52bd85b5-721d-e811-a6d2-9cb6d0e28a40,LUMBO,67241,-15.033333,40.666667,11
55bd85b5-721d-e811-a6d2-9cb6d0e28a40,ZUMBO,67243,-15.616667,30.433333,340
58bd85b5-721d-e811-a6d2-9cb6d0e28a40,SONGO,67250,-15.6,34.433333,966
5bbd85b5-721d-e811-a6d2-9cb6d0e28a40,MILANGE,67260,-16.1,35.766667,678.4
5ebd85b5-721d-e811-a6d2-9cb6d0e28a40,TETE,67261,-16.183333,33.583333,150
61bd85b5-721d-e811-a6d2-9cb6d0e28a40,TETE CHINGODZE,67262,-16.116667,33.65,129
c027efbb-721d-e811-a6d2-9cb6d0e28a40,MOCUBA,67271,-16.833333,36.983333,134
c327efbb-721d-e811-a6d2-9cb6d0e28a40,ANGOCHE,67273,-16.216667,39.9,62
c627efbb-721d-e811-a6d2-9cb6d0e28a40,CAIA,67280,-17.833333,35.333333,45
c927efbb-721d-e811-a6d2-9cb6d0e28a40,QUELIMANE,67283,-17.883333,36.883333,16
cc27efbb-721d-e811-a6d2-9cb6d0e28a40,PEBANE,67285,-17.266667,38.15,26
cf27efbb-721d-e811-a6d2-9cb6d0e28a40,CATANDICA,67291,-18.066667,33.166667,611
d227efbb-721d-e811-a6d2-9cb6d0e28a40,CHIMOIO,67295,-19.116667,33.466667,732
5526f5c1-721d-e811-a6d2-9cb6d0e28a40,BEIRA,67297,-19.8,34.9,16
5826f5c1-721d-e811-a6d2-9cb6d0e28a40,ESPUNGABERA,67301,-20.466667,32.766667,824
5b26f5c1-721d-e811-a6d2-9cb6d0e28a40,MASSANGENA,67305,-21.55,32.966667,136
5e26f5c1-721d-e811-a6d2-9cb6d0e28a40,VILANCULOS,67315,-22,35.316667,21
6126f5c1-721d-e811-a6d2-9cb6d0e28a40,INHAMBANE,67323,-23.866667,35.383333,15
6426f5c1-721d-e811-a6d2-9cb6d0e28a40,INHAMBANE AEROPORTO,67324,-23.866667,35.416667,9
2f26efc7-721d-e811-a6d2-9cb6d0e28a40,PANDA,67327,-24.05,34.716667,150
3226efc7-721d-e811-a6d2-9cb6d0e28a40,MAPULANGUENE,67331,-24.483333,32.083333,418
3526efc7-721d-e811-a6d2-9cb6d0e28a40,XAI XAI,67335,-25.05,33.633333,5
3826efc7-721d-e811-a6d2-9cb6d0e28a40,MAPUTO OBSERVATORIO,67339,-25.966667,32.6,60
3b26efc7-721d-e811-a6d2-9cb6d0e28a40,MAPUTO MAVALANE,67341,-25.916667,32.566667,44
3e26efc7-721d-e811-a6d2-9cb6d0e28a40,CHANGALANE,67346,-26.283333,32.183333,104
6b7a9bce-721d-e811-a6d2-9cb6d0e28a40,KAWAMBWA,67403,-9.8,29.083333,1324
6e7a9bce-721d-e811-a6d2-9cb6d0e28a40,MBALA,67413,-8.85,31.333333,1673
717a9bce-721d-e811-a6d2-9cb6d0e28a40,CHITIPA,67421,-9.7,33.266667,1278
747a9bce-721d-e811-a6d2-9cb6d0e28a40,KARONGA,67423,-9.95,33.883333,529
777a9bce-721d-e811-a6d2-9cb6d0e28a40,BOLERO,67424,-10.966667,33.733333,1100
7a7a9bce-721d-e811-a6d2-9cb6d0e28a40,MWINILUNGA,67441,-11.75,24.433333,1363
7d7a9bce-721d-e811-a6d2-9cb6d0e28a40,MANSA,67461,-11.1,28.85,1384
0f641fd5-721d-e811-a6d2-9cb6d0e28a40,SAMFYA,67469,-11.366667,29.9,0
12641fd5-721d-e811-a6d2-9cb6d0e28a40,KASAMA,67475,-10.216667,31.133333,1384
15641fd5-721d-e811-a6d2-9cb6d0e28a40,MISAMFU,67476,-10.1,31.25,1536
18641fd5-721d-e811-a6d2-9cb6d0e28a40,MPIKA,67477,-11.9,31.433333,1402
1b641fd5-721d-e811-a6d2-9cb6d0e28a40,ISOKA,67481,-10.116667,32.633333,1360
1e641fd5-721d-e811-a6d2-9cb6d0e28a40,MZIMBA,67485,-11.883333,33.616667,1351
21641fd5-721d-e811-a6d2-9cb6d0e28a40,MZUZU,67489,-11.45,34.016667,1253
6bdbc3db-721d-e811-a6d2-9cb6d0e28a40,NKHATA BAY,67493,-11.6,34.3,500
6edbc3db-721d-e811-a6d2-9cb6d0e28a40,ZAMBEZI,67531,-13.533333,23.116667,1078
71dbc3db-721d-e811-a6d2-9cb6d0e28a40,KASEMPA,67541,-13.533333,25.85,1234
74dbc3db-721d-e811-a6d2-9cb6d0e28a40,KABOMPO,67543,-13.6,24.2,1075
77dbc3db-721d-e811-a6d2-9cb6d0e28a40,SOLWEZI,67551,-12.183333,26.383333,1386
7adbc3db-721d-e811-a6d2-9cb6d0e28a40,NDOLA,67561,-13,28.65,1270
7ddbc3db-721d-e811-a6d2-9cb6d0e28a40,KAFIRONDA,67563,-12.6,28.116667,1243
007fd2e1-721d-e811-a6d2-9cb6d0e28a40,SERENJE,67571,-13.233333,30.216667,1384
037fd2e1-721d-e811-a6d2-9cb6d0e28a40,MKUSHI,67575,-13.633333,29.433333,1237
067fd2e1-721d-e811-a6d2-9cb6d0e28a40,MSEKERA,67580,-13.65,32.566667,1025
097fd2e1-721d-e811-a6d2-9cb6d0e28a40,CHIPATA,67581,-13.55,32.583333,1032
0c7fd2e1-721d-e811-a6d2-9cb6d0e28a40,LUNDAZI,67583,-12.283333,33.2,1143
0f7fd2e1-721d-e811-a6d2-9cb6d0e28a40,KASUNGU,67584,-13.016667,33.466667,1015
127fd2e1-721d-e811-a6d2-9cb6d0e28a40,CHITEDZE,67585,-13.983333,33.633333,1149
c5252fe8-721d-e811-a6d2-9cb6d0e28a40,LILONGWE INT'L AIRPORT,67586,-13.783333,33.766667,1229
c8252fe8-721d-e811-a6d2-9cb6d0e28a40,N.R.C.,67588,-14.166667,33.666667,1100
cb252fe8-721d-e811-a6d2-9cb6d0e28a40,NKHOTA KOTA,67591,-12.916667,34.266667,500
ce252fe8-721d-e811-a6d2-9cb6d0e28a40,SALIMA,67597,-13.75,34.583333,513
d1252fe8-721d-e811-a6d2-9cb6d0e28a40,MFUWE,67599,-13.266667,31.933333,570
d4252fe8-721d-e811-a6d2-9cb6d0e28a40,KALABO,67625,-14.85,22.7,0
d7252fe8-721d-e811-a6d2-9cb6d0e28a40,MONGU,67633,-15.25,23.15,1053
2f27bfee-721d-e811-a6d2-9cb6d0e28a40,KAOMA,67641,-14.8,24.8,1213
3227bfee-721d-e811-a6d2-9cb6d0e28a40,MUMBWA,67655,-15.066667,27.183333,1218
3527bfee-721d-e811-a6d2-9cb6d0e28a40,KAFUE POLDER,67659,-15.766667,27.916667,978
3827bfee-721d-e811-a6d2-9cb6d0e28a40,KABWE AGRIC,67662,-14.4,28.5,1165
3b27bfee-721d-e811-a6d2-9cb6d0e28a40,KABWE,67663,-14.45,28.466667,1207
3e27bfee-721d-e811-a6d2-9cb6d0e28a40,LUSAKA INTERNATIONAL AIRPORT,67665,-15.316667,28.45,1154
4127bfee-721d-e811-a6d2-9cb6d0e28a40,LUSAKA CITY AIRPORT,67666,-15.416667,28.466667,0
d2e3e6f4-721d-e811-a6d2-9cb6d0e28a40,MOUNT MAKULU,67667,-15.55,28.25,1213
d5e3e6f4-721d-e811-a6d2-9cb6d0e28a40,PETAUKE,67673,-14.25,31.283333,1036
d8e3e6f4-721d-e811-a6d2-9cb6d0e28a40,CHICHIRI,67687,-15.783333,35.033333,1141
dbe3e6f4-721d-e811-a6d2-9cb6d0e28a40,DEDZA,67689,-14.316667,34.266667,1632
dee3e6f4-721d-e811-a6d2-9cb6d0e28a40,MONKEY BAY,67690,-14.083333,34.916667,474
e1e3e6f4-721d-e811-a6d2-9cb6d0e28a40,MAKOKA,67692,-15.516667,35.216667,1028
e4e3e6f4-721d-e811-a6d2-9cb6d0e28a40,CHILEKA,67693,-15.683333,34.966667,767
5fd20ffb-721d-e811-a6d2-9cb6d0e28a40,MANGOCHI,67695,-14.433333,35.25,485
62d20ffb-721d-e811-a6d2-9cb6d0e28a40,MIMOSA,67699,-16.083333,35.583333,653
65d20ffb-721d-e811-a6d2-9cb6d0e28a40,SENANGA,67731,-16.1,23.266667,1027
68d20ffb-721d-e811-a6d2-9cb6d0e28a40,SESHEKE,67741,-17.466667,24.3,951
6bd20ffb-721d-e811-a6d2-9cb6d0e28a40,LIVINGSTONE,67743,-17.816667,25.816667,986
6ed20ffb-721d-e811-a6d2-9cb6d0e28a40,MAGOYE,67751,-16,27.6,1018
71d20ffb-721d-e811-a6d2-9cb6d0e28a40,CHOMA,67753,-16.833333,27.066667,1278
6cf56401-731d-e811-a6d2-9cb6d0e28a40,BINGA,67755,-17.616667,27.333333,617
6ff56401-731d-e811-a6d2-9cb6d0e28a40,KARIBA,67761,-16.516667,28.883333,518
72f56401-731d-e811-a6d2-9cb6d0e28a40,KAROI,67765,-16.833333,29.616667,1344
75f56401-731d-e811-a6d2-9cb6d0e28a40,KANYEMBA,67767,-15.633333,30.416667,329
78f56401-731d-e811-a6d2-9cb6d0e28a40,CHINHOYI,67771,-17.366667,30.2,1140
7bf56401-731d-e811-a6d2-9cb6d0e28a40,GURUVE,67773,-16.65,30.7,1180
7ef56401-731d-e811-a6d2-9cb6d0e28a40,HARARE (BELVEDERE),67774,-17.833333,31.016667,0
37e89f07-731d-e811-a6d2-9cb6d0e28a40,HARARE (KUTSAGA),67775,-17.916667,31.133333,1480
3ae89f07-731d-e811-a6d2-9cb6d0e28a40,MOUNT DARWIN,67779,-16.783333,31.583333,966
3de89f07-731d-e811-a6d2-9cb6d0e28a40,MUTOKO,67781,-17.416667,32.216667,1244
40e89f07-731d-e811-a6d2-9cb6d0e28a40,HERNDERSON,67785,-17.583333,30.966667,1290
43e89f07-731d-e811-a6d2-9cb6d0e28a40,MVURWI,67789,-17.033333,30.983333,1480
46e89f07-731d-e811-a6d2-9cb6d0e28a40,BVUMBWE,67791,-15.916667,35.066667,1146
49e89f07-731d-e811-a6d2-9cb6d0e28a40,THYOLO,67793,-16.15,35.216667,820
f5abf30d-731d-e811-a6d2-9cb6d0e28a40,NGABU,67796,-16.5,34.95,102
f8abf30d-731d-e811-a6d2-9cb6d0e28a40,MAKANGA,67797,-16.516667,35.15,58
fbabf30d-731d-e811-a6d2-9cb6d0e28a40,VICTORIA FALLS,67843,-18.1,25.85,1062
feabf30d-731d-e811-a6d2-9cb6d0e28a40,HWANGE NATIONAL PARK,67853,-18.633333,27,1077
01acf30d-731d-e811-a6d2-9cb6d0e28a40,GOKWE,67861,-18.216667,28.933333,1282
04acf30d-731d-e811-a6d2-9cb6d0e28a40,NKAYI,67863,-19,28.9,1131
07acf30d-731d-e811-a6d2-9cb6d0e28a40,KWEKWE,67865,-18.933333,29.833333,1215
b7ccbb14-731d-e811-a6d2-9cb6d0e28a40,GWERU,67867,-19.45,29.85,1429
baccbb14-731d-e811-a6d2-9cb6d0e28a40,KADOMA,67869,-18.316667,29.883333,1157
bdccbb14-731d-e811-a6d2-9cb6d0e28a40,CHIVHU,67871,-19.033333,30.883333,1459
c0ccbb14-731d-e811-a6d2-9cb6d0e28a40,BUHERA,67875,-19.316667,31.433333,1190
c3ccbb14-731d-e811-a6d2-9cb6d0e28a40,GRASSLANDS,67877,-18.183333,31.466667,1632
c6ccbb14-731d-e811-a6d2-9cb6d0e28a40,RUSAPE,67881,-18.533333,32.133333,1430
c9ccbb14-731d-e811-a6d2-9cb6d0e28a40,WYANGA,67889,-18.283333,32.75,1880
0ec6011b-731d-e811-a6d2-9cb6d0e28a40,MHONDORO,67891,-19.316667,30.6,1260
11c6011b-731d-e811-a6d2-9cb6d0e28a40,MUKANDI,67895,-18.716667,32.85,1270
14c6011b-731d-e811-a6d2-9cb6d0e28a40,CHISENGU,67897,-19.883333,32.883333,1480
17c6011b-731d-e811-a6d2-9cb6d0e28a40,WEDZA,67899,-18.616667,31.566667,1380
1ac6011b-731d-e811-a6d2-9cb6d0e28a40,PLUMTREE,67951,-20.483333,27.8,1390
1dc6011b-731d-e811-a6d2-9cb6d0e28a40,KEZI,67961,-20.916667,28.45,1020
20c6011b-731d-e811-a6d2-9cb6d0e28a40,MATOPOS,67963,-20.383333,28.55,1350
bba45821-731d-e811-a6d2-9cb6d0e28a40,BULAWAYO (GOETZ OBSY.),67964,-20.15,28.616667,1344
bea45821-731d-e811-a6d2-9cb6d0e28a40,BULAWAYO AIRPORT,67965,-20.016667,28.616667,1326
c1a45821-731d-e811-a6d2-9cb6d0e28a40,TULI,67967,-21.383333,28.983333,770
c4a45821-731d-e811-a6d2-9cb6d0e28a40,WEST NICHOLSON,67969,-21.05,29.366667,861
c7a45821-731d-e811-a6d2-9cb6d0e28a40,ZVISHAVANE,67971,-20.316667,30.066667,980
caa45821-731d-e811-a6d2-9cb6d0e28a40,MAKOHOLI,67974,-19.833333,30.783333,0
cda45821-731d-e811-a6d2-9cb6d0e28a40,MASVINGO,67975,-20.066667,30.866667,1095
a0d5df27-731d-e811-a6d2-9cb6d0e28a40,RUPIKE,67976,-20.55,31.083333,700
a3d5df27-731d-e811-a6d2-9cb6d0e28a40,BUFFALO RANGE,67977,-21.016667,31.583333,430
a6d5df27-731d-e811-a6d2-9cb6d0e28a40,ZAKA,67979,-20.333333,31.466667,770
a9d5df27-731d-e811-a6d2-9cb6d0e28a40,CHIPINGE,67983,-20.2,32.616667,1132
acd5df27-731d-e811-a6d2-9cb6d0e28a40,BEITBRIDGE,67991,-22.216667,30,457
afd5df27-731d-e811-a6d2-9cb6d0e28a40,OTJIWARONGO,68004,-20.45,16.633333,1455
b2d5df27-731d-e811-a6d2-9cb6d0e28a40,ONDANGWA,68006,-17.877222,15.95,1100
0f71342e-731d-e811-a6d2-9cb6d0e28a40,OKAUKUEJO,68010,-19.183333,15.916667,1100
1271342e-731d-e811-a6d2-9cb6d0e28a40,GROOTFONTEIN,68014,-19.598611,18.116111,1400
1571342e-731d-e811-a6d2-9cb6d0e28a40,MOWE BAY,68016,-19.333333,12.716667,0
1871342e-731d-e811-a6d2-9cb6d0e28a40,RUNDU,68018,-17.916667,19.766667,1102
1b71342e-731d-e811-a6d2-9cb6d0e28a40,GHANZI,68024,-21.7,21.65,1100
1e71342e-731d-e811-a6d2-9cb6d0e28a40,SHAKAWE,68026,-18.366667,21.85,1000
2171342e-731d-e811-a6d2-9cb6d0e28a40,TUBU,68027,-19.357778,22.283889,970
d35cb434-731d-e811-a6d2-9cb6d0e28a40,MABABE,68028,-19.018056,23.97,931
d65cb434-731d-e811-a6d2-9cb6d0e28a40,KASANE,68029,-17.816667,25.15,1000
d95cb434-731d-e811-a6d2-9cb6d0e28a40,PANDAMATENGA,68030,-18.533333,25.633333,0
dc5cb434-731d-e811-a6d2-9cb6d0e28a40,MOREMI,68031,-19.333333,23.416667,964
df5cb434-731d-e811-a6d2-9cb6d0e28a40,MAUN,68032,-19.983333,23.416667,900
e25cb434-731d-e811-a6d2-9cb6d0e28a40,GWETA ,68034,-20.25,25.083333,0
a6b6ea3a-731d-e811-a6d2-9cb6d0e28a40,GWETA B1054,68035,-20.204167,25.262222,998
a9b6ea3a-731d-e811-a6d2-9cb6d0e28a40,MAITENGWE,68037,-20.125278,27.22,1045
acb6ea3a-731d-e811-a6d2-9cb6d0e28a40,SUA-PAN,68038,-20.547222,26.078333,904
afb6ea3a-731d-e811-a6d2-9cb6d0e28a40,LETLHAKANE,68040,-21.416667,25.6,985
b2b6ea3a-731d-e811-a6d2-9cb6d0e28a40,FRANCISTOWN,68054,-21.323889,27.469167,1009.43
b5b6ea3a-731d-e811-a6d2-9cb6d0e28a40,SELEBI-PHIKWE,68070,-22.05,27.816667,0
b8b6ea3a-731d-e811-a6d2-9cb6d0e28a40,XADE,68084,-22.343889,23.031389,996
9a465741-731d-e811-a6d2-9cb6d0e28a40,SEROWE,68086,-22.413333,26.715278,1100
9d465741-731d-e811-a6d2-9cb6d0e28a40,BAINES DRIFT,68088,-22.489722,28.696667,840
a0465741-731d-e811-a6d2-9cb6d0e28a40,WALVIS BAY AIRPORT,68098,-22.983333,14.65,88
a3465741-731d-e811-a6d2-9cb6d0e28a40,OUTJO,68102,-20.113611,16.153611,1250
a6465741-731d-e811-a6d2-9cb6d0e28a40,WALVIS BAY (PELICAN POINT),68104,-22.883333,14.433333,7
a9465741-731d-e811-a6d2-9cb6d0e28a40,GOBABEB,68106,-23.566667,15.05,400
ac465741-731d-e811-a6d2-9cb6d0e28a40,EROS,68109,-22.6075,17.079167,1699
bad4ce47-731d-e811-a6d2-9cb6d0e28a40,WINDHOEK,68110,-22.566667,17.1,1700
bdd4ce47-731d-e811-a6d2-9cb6d0e28a40,HOSEA KUTAKO INTERNATIONAL AIRPORT,68112,-22.481111,17.470278,1719
c0d4ce47-731d-e811-a6d2-9cb6d0e28a40,OMARURU,68114,-21.416667,15.933333,1217
c3d4ce47-731d-e811-a6d2-9cb6d0e28a40,GOBABIS,68116,-22.466667,18.966667,1445
c6d4ce47-731d-e811-a6d2-9cb6d0e28a40,NCOJANE,68140,-23.125556,20.271944,1240
c9d4ce47-731d-e811-a6d2-9cb6d0e28a40,MAHALAPYE,68148,-23.083333,26.8,1006
ccd4ce47-731d-e811-a6d2-9cb6d0e28a40,LEPHEPE,68151,-23.364444,25.8475,1020
dbb78e4e-731d-e811-a6d2-9cb6d0e28a40,LEPHALALE,68155,-23.676667,27.705,839
deb78e4e-731d-e811-a6d2-9cb6d0e28a40,MARKEN,68163,-23.594722,28.387778,996
e1b78e4e-731d-e811-a6d2-9cb6d0e28a40,POLOKWANE,68174,-23.8575,29.451667,1226
e4b78e4e-731d-e811-a6d2-9cb6d0e28a40,MARA,68176,-23.144167,29.556944,894
e7b78e4e-731d-e811-a6d2-9cb6d0e28a40,LEVUBU,68182,-23.094167,30.286389,706
eab78e4e-731d-e811-a6d2-9cb6d0e28a40,THOHOYANDOU,68183,-23.079722,30.383889,614
edb78e4e-731d-e811-a6d2-9cb6d0e28a40,LYDENBURG,68185,-25.111944,30.476667,1433
43180a55-731d-e811-a6d2-9cb6d0e28a40,PUNDA MARIA,68196,-22.691944,31.015833,457
46180a55-731d-e811-a6d2-9cb6d0e28a40,MARIENTAL,68212,-24.5,17.866667,1100
49180a55-731d-e811-a6d2-9cb6d0e28a40,NGWATLE,68218,-23.712222,21.079722,1172
4c180a55-731d-e811-a6d2-9cb6d0e28a40,KHUTSE,68220,-23.666667,24.166667,1100
4f180a55-731d-e811-a6d2-9cb6d0e28a40,TSHANE,68226,-24.016667,21.883333,1100
52180a55-731d-e811-a6d2-9cb6d0e28a40,MOTOKWE,68228,-24.061111,23.2975,1096
55180a55-731d-e811-a6d2-9cb6d0e28a40,JWANENG,68234,-24.6,24.666667,1200
28c29c5b-731d-e811-a6d2-9cb6d0e28a40,SERETSE KHAMA INTERNATIONAL AIRPORT,68240,-24.55,25.916667,1005
2bc29c5b-731d-e811-a6d2-9cb6d0e28a40,MADIKWE GAME RESERVE,68241,-24.688333,26.196389,1027
2ec29c5b-731d-e811-a6d2-9cb6d0e28a40,MAFIKENG,68242,-25.803611,25.542778,1281
31c29c5b-731d-e811-a6d2-9cb6d0e28a40,GABORONE,68244,-24.666667,25.916667,0
34c29c5b-731d-e811-a6d2-9cb6d0e28a40,THABAZIMBI,68253,-24.58,27.413333,977
37c29c5b-731d-e811-a6d2-9cb6d0e28a40,RUSTENBURG,68255,-25.660833,27.232222,1150
363bd261-731d-e811-a6d2-9cb6d0e28a40,PILANESBERG,68257,-25.257222,27.223889,1085
393bd261-731d-e811-a6d2-9cb6d0e28a40,BOLEPI HOUSE,68261,-25.809444,28.256389,1517
3c3bd261-731d-e811-a6d2-9cb6d0e28a40,PRETORIA (IRENE),68263,-25.910556,28.210556,1526
3f3bd261-731d-e811-a6d2-9cb6d0e28a40,ERMELO,68267,-26.497778,29.983889,1774
423bd261-731d-e811-a6d2-9cb6d0e28a40,WARMBAD TOWOOMBA,68268,-24.899167,28.323889,1143
453bd261-731d-e811-a6d2-9cb6d0e28a40,PRETORIA UNISA,68269,-25.766389,28.200556,1439
483bd261-731d-e811-a6d2-9cb6d0e28a40,KOPANE,68271,-24.196667,29.006667,1107
0a287768-731d-e811-a6d2-9cb6d0e28a40,OUDESTAD,68272,-25.181389,29.338889,953
0d287768-731d-e811-a6d2-9cb6d0e28a40,WITBANK,68273,-25.832222,29.192222,1555
10287768-731d-e811-a6d2-9cb6d0e28a40,BELFAST,68285,-25.691667,30.034444,1879
13287768-731d-e811-a6d2-9cb6d0e28a40,GRASKOP,68287,-24.935,30.839167,1436
16287768-731d-e811-a6d2-9cb6d0e28a40,NELSPRUIT,68289,-25.503056,30.911667,883
19287768-731d-e811-a6d2-9cb6d0e28a40,HOEDSPRUIT,68291,-24.3525,31.049167,524
1c287768-731d-e811-a6d2-9cb6d0e28a40,SKUKUZA B1108,68296,-24.9925,31.588056,263
c1b52c6f-731d-e811-a6d2-9cb6d0e28a40,KOMATIDRAAI,68297,-25.514444,31.910278,183
c4b52c6f-731d-e811-a6d2-9cb6d0e28a40,LOMAHASHA,68298,-25.983333,31.983333,570
c7b52c6f-731d-e811-a6d2-9cb6d0e28a40,PIGGS PEAK,68299,-25.966667,31.25,1099
cab52c6f-731d-e811-a6d2-9cb6d0e28a40,LUDERITZ AIRPORT,68300,-26.685278,15.245556,139
cdb52c6f-731d-e811-a6d2-9cb6d0e28a40,KEETMANSHOOP,68312,-26.533333,18.116667,1100
d0b52c6f-731d-e811-a6d2-9cb6d0e28a40,WERDA,68320,-25.266667,23.25,1000
d3b52c6f-731d-e811-a6d2-9cb6d0e28a40,TWEE RIVIEREN,68322,-26.471667,20.610278,882
43240176-731d-e811-a6d2-9cb6d0e28a40,GOOD HOPE,68325,-25.45,25.416667,1000
46240176-731d-e811-a6d2-9cb6d0e28a40,VAALHOEK,68326,-26.867222,20.709444,863
49240176-731d-e811-a6d2-9cb6d0e28a40,TSABONG,68328,-26.05,22.45,1000
4c240176-731d-e811-a6d2-9cb6d0e28a40,VAN ZYLSRUS,68329,-26.8775,22.05,938
4f240176-731d-e811-a6d2-9cb6d0e28a40,KATHU,68331,-27.670278,23.006389,1186
52240176-731d-e811-a6d2-9cb6d0e28a40,KURUMAN,68333,-27.433056,23.4475,1323
55240176-731d-e811-a6d2-9cb6d0e28a40,TAUNG,68335,-27.545278,24.768611,1110
7787a47c-731d-e811-a6d2-9cb6d0e28a40,VRYBURG,68338,-26.954722,24.652778,1234
7a87a47c-731d-e811-a6d2-9cb6d0e28a40,LICHTENBURG,68341,-26.133056,26.164444,1485
7d87a47c-731d-e811-a6d2-9cb6d0e28a40,OTTOSDAL,68342,-26.814444,26.010833,1498
8087a47c-731d-e811-a6d2-9cb6d0e28a40,BLOEMHOF,68343,-27.651111,25.621944,1225
8387a47c-731d-e811-a6d2-9cb6d0e28a40,WELKOM,68345,-27.994722,26.666111,1343
8687a47c-731d-e811-a6d2-9cb6d0e28a40,KLERKSDORP,68347,-26.898056,26.620833,1322
8987a47c-731d-e811-a6d2-9cb6d0e28a40,VENTERSDORP,68349,-26.312222,26.813889,1494
7c337b83-731d-e811-a6d2-9cb6d0e28a40,POTCHEFSTROOM,68350,-26.735833,27.075556,1349
7f337b83-731d-e811-a6d2-9cb6d0e28a40,VEREENIGING,68353,-26.57,27.966389,1479
82337b83-731d-e811-a6d2-9cb6d0e28a40,KROONSTAD,68355,-27.666389,27.313611,1434
85337b83-731d-e811-a6d2-9cb6d0e28a40,JOHANNESBURG BOT. TUINE,68361,-26.156667,27.999167,1624
88337b83-731d-e811-a6d2-9cb6d0e28a40,FRANKFORT-TNK,68362,-27.267222,28.494722,1507
8b337b83-731d-e811-a6d2-9cb6d0e28a40,SPRINGS,68363,-26.239444,28.435,1592
280db689-731d-e811-a6d2-9cb6d0e28a40,JOHANNESBURG INTNL. AIRPORT,68368,-26.143056,28.234722,1695
2b0db689-731d-e811-a6d2-9cb6d0e28a40,BETHAL,68370,-26.462222,29.460556,1650
2e0db689-731d-e811-a6d2-9cb6d0e28a40,VREDE,68375,-27.422778,29.169444,1670
310db689-731d-e811-a6d2-9cb6d0e28a40,NEWCASTLE,68377,-27.768611,29.977222,1241
340db689-731d-e811-a6d2-9cb6d0e28a40,CAROLINA B1221,68380,-26.073889,30.11,1700
370db689-731d-e811-a6d2-9cb6d0e28a40,VRYHEID,68387,-27.777222,30.796111,1163
3a0db689-731d-e811-a6d2-9cb6d0e28a40,MAYIWANE,68390,-25.883333,31.5,480
3fcf8f90-731d-e811-a6d2-9cb6d0e28a40,MBABANE,68391,-26.333333,31.133333,1193
42cf8f90-731d-e811-a6d2-9cb6d0e28a40,NHLANGANO,68392,-27.05,31.1,1102
45cf8f90-731d-e811-a6d2-9cb6d0e28a40,LAVUMISA,68393,-27.266667,31.816667,315
48cf8f90-731d-e811-a6d2-9cb6d0e28a40,LUBOVANE,68394,-26.735833,31.702222,265
4bcf8f90-731d-e811-a6d2-9cb6d0e28a40,HLATHIKHULU,68395,-26.966667,31.316667,1190
4ecf8f90-731d-e811-a6d2-9cb6d0e28a40,MANZINI MATSAPA AIRPORT,68396,-26.533333,31.3,641
51cf8f90-731d-e811-a6d2-9cb6d0e28a40,MBAZWANA AIRFIELD,68397,-27.4775,32.598333,82
13db7497-731d-e811-a6d2-9cb6d0e28a40,SITEKI,68398,-26.433333,31.95,667
16db7497-731d-e811-a6d2-9cb6d0e28a40,BIG BEND,68399,-26.85,31.916667,94
19db7497-731d-e811-a6d2-9cb6d0e28a40,MAKATINI,68400,-27.394167,32.176944,63
1cdb7497-731d-e811-a6d2-9cb6d0e28a40,ALEXANDER BAY,68403,-28.57,16.528611,28
1fdb7497-731d-e811-a6d2-9cb6d0e28a40,PORT NOLLOTH,68408,-29.25,16.868611,7
22db7497-731d-e811-a6d2-9cb6d0e28a40,VIOOLSDRIF,68411,-28.769444,17.623333,174
25db7497-731d-e811-a6d2-9cb6d0e28a40,POFADDER,68416,-29.123611,19.388889,982
72ef4d9e-731d-e811-a6d2-9cb6d0e28a40,UPINGTON,68424,-28.411111,21.254167,835
75ef4d9e-731d-e811-a6d2-9cb6d0e28a40,AUGRABIES FALLS,68425,-28.595,20.34,635
78ef4d9e-731d-e811-a6d2-9cb6d0e28a40,POSTMASBURG,68429,-28.345278,23.078889,1321
7bef4d9e-731d-e811-a6d2-9cb6d0e28a40,KIMBERLEY,68438,-28.806111,24.769722,1196
7eef4d9e-731d-e811-a6d2-9cb6d0e28a40,BLOEMFONTEIN AIRPORT,68442,-29.103889,26.298056,1353
81ef4d9e-731d-e811-a6d2-9cb6d0e28a40,BLOEMFONTEIN CITY,68443,-29.120278,26.1875,1406
84ef4d9e-731d-e811-a6d2-9cb6d0e28a40,GLEN COLLEGE AWS,68447,-28.941944,26.325833,1303
f4e215a5-731d-e811-a6d2-9cb6d0e28a40,FICKSBURG,68449,-28.827222,27.904167,1628
f7e215a5-731d-e811-a6d2-9cb6d0e28a40,MOKHOTLONG,68452,-29.266667,29.133333,2195
fae215a5-731d-e811-a6d2-9cb6d0e28a40,MASERU-MIA,68454,-29.45,27.55,1628
fde215a5-731d-e811-a6d2-9cb6d0e28a40,QACHA'S NEK,68456,-30.066667,28.7,1950
00e315a5-731d-e811-a6d2-9cb6d0e28a40,BETHLEHEM,68461,-28.249722,28.334167,1687
03e315a5-731d-e811-a6d2-9cb6d0e28a40,VAN REENEN,68471,-28.378889,29.385278,1680
f8cd47ab-731d-e811-a6d2-9cb6d0e28a40,ROYAL NATIONAL PARK,68474,-28.685833,28.954167,1392
fbcd47ab-731d-e811-a6d2-9cb6d0e28a40,ESTCOURT,68478,-29.009167,29.862778,1144
fecd47ab-731d-e811-a6d2-9cb6d0e28a40,LADYSMITH,68479,-28.575556,29.750278,1069
01ce47ab-731d-e811-a6d2-9cb6d0e28a40,PONGOLA,68481,-27.413889,31.590556,319
04ce47ab-731d-e811-a6d2-9cb6d0e28a40,MOOI RIVER,68485,-29.218056,30.0025,1393
07ce47ab-731d-e811-a6d2-9cb6d0e28a40,GREYTOWN,68487,-29.083333,30.603333,1029
48049bb1-731d-e811-a6d2-9cb6d0e28a40,BABANANGO,68488,-28.364444,31.206389,770
4b049bb1-731d-e811-a6d2-9cb6d0e28a40,CHARTERS CREEK,68491,-28.197778,32.414167,8
4e049bb1-731d-e811-a6d2-9cb6d0e28a40,ULUNDI,68493,-28.3125,31.420556,524
51049bb1-731d-e811-a6d2-9cb6d0e28a40,MANDINI,68494,-29.158333,31.402222,112
54049bb1-731d-e811-a6d2-9cb6d0e28a40,RICHARDS BAY,68495,-28.737778,32.093333,36
57049bb1-731d-e811-a6d2-9cb6d0e28a40,MTUNZINI,68497,-28.9475,31.707778,38
5a049bb1-731d-e811-a6d2-9cb6d0e28a40,SPRINGBOK,68512,-29.669444,17.878889,1006
b4077fb8-731d-e811-a6d2-9cb6d0e28a40,KOINGNAAS,68513,-30.195556,17.290278,95
b7077fb8-731d-e811-a6d2-9cb6d0e28a40,BRANDVLEI,68523,-30.464722,20.478333,922
ba077fb8-731d-e811-a6d2-9cb6d0e28a40,VANWYKSVLEI,68524,-30.349722,21.824444,962
bd077fb8-731d-e811-a6d2-9cb6d0e28a40,PRIESKA,68527,-29.67,22.74,949
c0077fb8-731d-e811-a6d2-9cb6d0e28a40,DE AAR,68538,-30.665,23.992778,1286
c3077fb8-731d-e811-a6d2-9cb6d0e28a40,FAURESMITH,68541,-29.753611,25.323056,1387
825294be-731d-e811-a6d2-9cb6d0e28a40,GARIEP DAM,68543,-30.562222,25.527778,1272
855294be-731d-e811-a6d2-9cb6d0e28a40,ALIWAL NORTH PLAATKOP,68546,-30.802778,26.888333,1347
885294be-731d-e811-a6d2-9cb6d0e28a40,WEPENER,68549,-29.9,26.866944,1420
8b5294be-731d-e811-a6d2-9cb6d0e28a40,BARKLY EAST (CAERLEON),68558,-30.931389,27.606944,1818
8e5294be-731d-e811-a6d2-9cb6d0e28a40,SHALEBURN,68572,-29.786944,29.3525,1609
915294be-731d-e811-a6d2-9cb6d0e28a40,IXOPO,68575,-30.1525,30.074722,937
53f08dc4-731d-e811-a6d2-9cb6d0e28a40,KOKSTAD,68577,-30.501111,29.394167,1443
56f08dc4-731d-e811-a6d2-9cb6d0e28a40,PADDOCK,68579,-30.754444,30.257778,506
59f08dc4-731d-e811-a6d2-9cb6d0e28a40,CEDARA,68580,-29.541667,30.265,1071
5cf08dc4-731d-e811-a6d2-9cb6d0e28a40,PIETERMARITZBURG,68581,-29.627778,30.402778,673
5ff08dc4-731d-e811-a6d2-9cb6d0e28a40,ORIBI AIRPORT,68582,-29.647778,30.399444,721
62f08dc4-731d-e811-a6d2-9cb6d0e28a40,MOUNT EDGECOMBE,68583,-29.706667,31.046111,94
b65697ca-731d-e811-a6d2-9cb6d0e28a40,PENNINGTON SOUTH,68585,-30.399722,30.685833,15
b95697ca-731d-e811-a6d2-9cb6d0e28a40,PORT EDWARD,68587,-31.062222,30.221389,11
bc5697ca-731d-e811-a6d2-9cb6d0e28a40,DURBAN INTNL. AIRPORT,68588,-29.965,30.946667,14
bf5697ca-731d-e811-a6d2-9cb6d0e28a40,GIANTS CASTLE,68589,-29.265,29.522222,1762
c25697ca-731d-e811-a6d2-9cb6d0e28a40,MARGATE,68591,-30.858889,30.343333,154
c55697ca-731d-e811-a6d2-9cb6d0e28a40,KING SHAKA INTERNATIONAL AIRPORT,68592,-29.601667,31.123889,109
c85697ca-731d-e811-a6d2-9cb6d0e28a40,DURBAN-VIRGINIA,68593,-29.766944,31.055556,14
f5f294d0-731d-e811-a6d2-9cb6d0e28a40,LAMBERTS BAY NORTIER,68613,-32.035,18.3325,93.6
f8f294d0-731d-e811-a6d2-9cb6d0e28a40,VREDENDAL,68614,-31.673056,18.496111,32.7
fbf294d0-731d-e811-a6d2-9cb6d0e28a40,CALVINIA,68618,-31.481944,19.761667,977
fef294d0-731d-e811-a6d2-9cb6d0e28a40,NIEUWOUDTVILLE,68619,-31.376111,19.108056,731
01f394d0-731d-e811-a6d2-9cb6d0e28a40,FRASERBURG,68624,-31.916111,21.507778,1267
1d9c38d7-731d-e811-a6d2-9cb6d0e28a40,NOUPOORT,68633,-31.186389,24.960278,1495
209c38d7-731d-e811-a6d2-9cb6d0e28a40,QUEENSTOWN,68647,-31.917778,26.878056,1104
239c38d7-731d-e811-a6d2-9cb6d0e28a40,JAMESTOWN,68649,-31.121111,26.809722,1602
269c38d7-731d-e811-a6d2-9cb6d0e28a40,ELLIOT,68651,-31.336389,27.840278,1463
299c38d7-731d-e811-a6d2-9cb6d0e28a40,UMTATA,68668,-31.549722,28.673889,747
2c9c38d7-731d-e811-a6d2-9cb6d0e28a40,COFFEE BAY,68677,-31.950833,29.133889,161
40d84ddd-731d-e811-a6d2-9cb6d0e28a40,CLANWILLIAM,68711,-32.176667,18.888056,100
43d84ddd-731d-e811-a6d2-9cb6d0e28a40,CAPE COLUMBINE,68712,-32.827778,17.855833,55
46d84ddd-731d-e811-a6d2-9cb6d0e28a40,PAARL,68713,-33.721944,18.971944,109
49d84ddd-731d-e811-a6d2-9cb6d0e28a40,LANGEBAANWEG,68714,-32.9725,18.157778,31
4cd84ddd-731d-e811-a6d2-9cb6d0e28a40,MALMESBURY,68715,-33.4725,18.718333,101
4fd84ddd-731d-e811-a6d2-9cb6d0e28a40,PORTERVILLE,68717,-33.012778,18.977222,122
78a969e3-731d-e811-a6d2-9cb6d0e28a40,ROBERTSON,68718,-33.794722,19.901111,210
7ba969e3-731d-e811-a6d2-9cb6d0e28a40,EXCELSIOR CERES,68719,-32.963611,19.430833,958
7ea969e3-731d-e811-a6d2-9cb6d0e28a40,SUTHERLAND,68722,-32.399722,20.662778,1458
81a969e3-731d-e811-a6d2-9cb6d0e28a40,LAINGSBURG,68723,-33.190833,20.8625,656
84a969e3-731d-e811-a6d2-9cb6d0e28a40,BEAUFORT WEST,68727,-32.3475,22.573056,899
87a969e3-731d-e811-a6d2-9cb6d0e28a40,GRAAFF-REINET,68737,-32.193056,24.543333,792
7bf0a7e9-731d-e811-a6d2-9cb6d0e28a40,CRADOCK-MUN,68744,-32.1675,25.625278,926
7ef0a7e9-731d-e811-a6d2-9cb6d0e28a40,FORT BEAUFORT,68747,-32.788056,26.629167,455
81f0a7e9-731d-e811-a6d2-9cb6d0e28a40,BISHO,68752,-32.894444,27.286667,590
84f0a7e9-731d-e811-a6d2-9cb6d0e28a40,DOHNE-AGR,68754,-32.5275,27.460556,901
87f0a7e9-731d-e811-a6d2-9cb6d0e28a40,GEELBEK,68811,-33.196389,18.124167,7
8af0a7e9-731d-e811-a6d2-9cb6d0e28a40,ROBBEN ISLAND,68813,-33.798889,18.374444,2
a5a6bdef-731d-e811-a6d2-9cb6d0e28a40,CAPE TOWN INTERNATIONAL AIRPORT,68816,-33.963056,18.602222,42
a8a6bdef-731d-e811-a6d2-9cb6d0e28a40,CAPE TOWN PORTNET,68817,-33.920556,18.443056,2
aba6bdef-731d-e811-a6d2-9cb6d0e28a40,MOLTENO RESERVIOR,68819,-33.937778,18.410833,97
aea6bdef-731d-e811-a6d2-9cb6d0e28a40,WORCESTER,68821,-33.663889,19.418611,199
b1a6bdef-731d-e811-a6d2-9cb6d0e28a40,LADISMITH,68825,-33.500556,21.265278,538
b4a6bdef-731d-e811-a6d2-9cb6d0e28a40,OUDTSHOORN,68826,-33.6,22.187778,328
8a57d7f5-731d-e811-a6d2-9cb6d0e28a40,GEORGE AIRPORT,68828,-34.004167,22.384167,191
8d57d7f5-731d-e811-a6d2-9cb6d0e28a40,WILLOWMORE,68832,-33.300278,23.483889,840
9057d7f5-731d-e811-a6d2-9cb6d0e28a40,JOUBERTINA,68833,-33.824722,23.860556,546
9357d7f5-731d-e811-a6d2-9cb6d0e28a40,PATENSIE,68835,-33.765278,24.823333,97
9657d7f5-731d-e811-a6d2-9cb6d0e28a40,NGQURA (COEGA),68837,-33.805,25.669444,46
9957d7f5-731d-e811-a6d2-9cb6d0e28a40,UITENHAGE,68839,-33.714167,25.435278,157
785b9bfc-731d-e811-a6d2-9cb6d0e28a40,SOMERSET EAST,68840,-33.049722,25.719167,506
7b5b9bfc-731d-e811-a6d2-9cb6d0e28a40,ADDO ELEPHANT PARK,68841,-33.442222,25.748611,143
7e5b9bfc-731d-e811-a6d2-9cb6d0e28a40,PORT ELIZABETH,68842,-33.986389,25.616389,63
815b9bfc-731d-e811-a6d2-9cb6d0e28a40,PORT ALFRED ARPORT,68843,-33.559444,26.880833,84
845b9bfc-731d-e811-a6d2-9cb6d0e28a40,BIRD ISLAND,68845,-33.838889,26.286111,3
875b9bfc-731d-e811-a6d2-9cb6d0e28a40,GRAHAMSTOWN,68849,-33.290833,26.5025,642
d0d0cc02-741d-e811-a6d2-9cb6d0e28a40,EAST LONDON,68858,-33.035833,27.816111,116
d3d0cc02-741d-e811-a6d2-9cb6d0e28a40,GOUGH ISLAND,68906,-40.349444,-9.880278,54
d6d0cc02-741d-e811-a6d2-9cb6d0e28a40,STRAND,68911,-34.141111,18.848889,7
d9d0cc02-741d-e811-a6d2-9cb6d0e28a40,SLANGKOP,68912,-34.148333,18.319167,7
dcd0cc02-741d-e811-a6d2-9cb6d0e28a40,CAPE POINT ,68916,-34.353333,18.489444,228
dfd0cc02-741d-e811-a6d2-9cb6d0e28a40,HERMANUS,68918,-34.4325,19.224722,16
cd4b0709-741d-e811-a6d2-9cb6d0e28a40,CAPE AGULHAS,68920,-34.826111,20.013056,4
d04b0709-741d-e811-a6d2-9cb6d0e28a40,STRUISBAAI,68921,-34.800278,20.056944,3
d34b0709-741d-e811-a6d2-9cb6d0e28a40,TYGERHOEK,68923,-34.149722,19.903056,151
d64b0709-741d-e811-a6d2-9cb6d0e28a40,RIVERSDALE,68926,-34.095833,21.251667,152
d94b0709-741d-e811-a6d2-9cb6d0e28a40,STILBAAI,68927,-34.368889,21.391389,103
dc4b0709-741d-e811-a6d2-9cb6d0e28a40,PLETTENBERG BAY,68931,-34.089722,23.325833,139
0edc660f-741d-e811-a6d2-9cb6d0e28a40,TSITSIKAMMA,68933,-34.022778,23.898611,5
11dc660f-741d-e811-a6d2-9cb6d0e28a40,KNYSNA,68935,-34.095,23.081389,54
14dc660f-741d-e811-a6d2-9cb6d0e28a40,CAPE ST FRANCIS,68939,-34.212222,24.857778,7
17dc660f-741d-e811-a6d2-9cb6d0e28a40,BOUVET ISLAND,68992,-54.4,3.283333,42
1adc660f-741d-e811-a6d2-9cb6d0e28a40,MARION ISLAND,68994,-46.876667,37.858611,24
1ddc660f-741d-e811-a6d2-9cb6d0e28a40,CT-AWS,68999,-33.978889,18.6,46
